time,x,y,z,w0,w1,w2,w3,vx,vy,vz,roll,pitch,yaw
0,0.0,0.0,0.0,0.0,0.0,0.0,1.0,0.0,0.0,0.0,0,0,0.0
0,0.0,0.0,0.0,0.0,0.0,0.0,1.0,0.0,0.0,0.0,0,0,0.0
0,0.0,0.0,0.0,0.0,0.0,0.0,1.0,0.0,0.0,0.0,0,0,0.0
0,0.0,0.0,0.0,0.0,0.0,0.0,1.0,0.0,0.0,0.0,0,0,0.0
0,0.0,0.0,0.0,0.0,0.0,0.0,1.0,0.0,0.0,0.0,0,0,0.0
0,0.0,0.0,0.0,0.0,0.0,0.0,1.0,0.0,0.0,0.0,0,0,0.0
0,0.0,0.0,0.0,0.0,0.0,0.0,1.0,0.0,0.0,0.0,0,0,0.0
0,0.0,0.0,0.0,0.0,0.0,0.0,1.0,0.0,0.0,0.0,0,0,0.0
0,0.0,0.0,0.0,0.0,0.0,0.0,1.0,0.0,0.0,0.0,0,0,0.0
0,0.0,0.0,0.0,0.0,0.0,0.0,1.0,0.0,0.0,0.0,0,0,0.0
0,0.0,0.0,0.0,0.0,0.0,0.0,1.0,0.0,0.0,0.0,0,0,0.0
0,0.0,0.0,0.0,0.0,0.0,0.0,1.0,0.0,0.0,0.0,0,0,0.0
0,0.005537271499633789,0.0,0.0,0.0,0.0,0.0,1.0,0.0,0.0,0.0,0,0,0.0
0,0.01134898927476671,0.0,0.0,0.0,0.0,0.0,1.0,0.0,0.0,0.0,0,0,0.0
0,0.016612145635816786,0.0,0.0,0.0,0.0,0.0,1.0,0.0,0.0,0.0,0,0,0.0
0,0.022156834602355957,0.0,0.0,0.0,0.0,0.0,1.0,0.0,0.0,0.0,0,0,0.0
0,0.027706027030944824,0.0,0.0,0.0,0.0,0.0,1.0,0.0,0.0,0.0,0,0,0.0
0,0.033253365092807345,0.0,0.0,0.0,0.0,0.0,1.0,0.0,0.0,0.0,0,0,0.0
0,0.03881394863128662,0.0,0.0,0.0,0.0,0.0,1.0,0.0,0.0,0.0,0,0,0.0
0,0.04436572392781576,0.0,0.0,0.0,0.0,0.0,1.0,0.0,0.0,0.0,0,0,0.0
0,0.04991253217061361,0.0,0.0,0.0,0.0,0.0,1.0,0.0,0.0,0.0,0,0,0.0
0,0.05548563268449572,0.0,0.0,0.0,0.0,0.0,1.0,0.0,0.0,0.0,0,0,0.0
0,0.06103369924757216,0.0,0.0,0.0,0.0,0.0,1.0,0.0,0.0,0.0,0,0,0.0
0,0.06659474637773302,0.0,0.0,0.0,0.0,0.0,1.0,0.0,0.0,0.0,0,0,0.0
0,0.0721499654981825,0.0,0.0,0.0,0.0,0.0,1.0,0.0,0.0,0.0,0,0,0.0
0,0.07770094606611463,0.0,0.0,0.0,0.0,0.0,1.0,0.0,0.0,0.0,0,0,0.0
0,0.0832558340496487,0.0,0.0,0.0,0.0,0.0,1.0,0.0,0.0,0.0,0,0,0.0
0,0.08882105350494385,0.0,0.0,0.0,0.0,0.0,1.0,0.0,0.0,0.0,0,0,0.0
0,0.09438137213389079,0.0,0.0,0.0,0.0,0.0,1.0,0.0,0.0,0.0,0,0,0.0
0,0.09993314743041992,0.0,0.0,0.0,0.0,0.0,1.0,0.0,0.0,0.0,0,0,0.0
0,0.1054843266805013,0.0,0.0,0.0,0.0,0.0,1.0,0.0,0.0,0.0,0,0,0.0
0,0.11104881763458252,0.0,0.0,0.0,0.0,0.0,1.0,0.0,0.0,0.0,0,0,0.0
0,0.11659443378448486,0.0,0.0,0.0,0.0,0.0,1.0,0.0,0.0,0.0,0,0,0.0
0,0.12237588564554851,0.0,0.0,0.0,0.0,0.0,1.0,0.0,0.0,0.0,0,0,0.0
0,0.12791044182247585,0.0,0.0,0.0,0.0,0.0,1.0,0.0,0.0,0.0,0,0,0.0
0,0.1332924101087782,0.0,0.0,0.0,0.0,0.0,1.0,0.0,0.0,0.0,0,0,0.0
0,0.13889643881056044,0.0,0.0,0.0,0.0,0.0,1.0,0.0,0.0,0.0,0,0,0.0
0,0.14440821276770696,0.0,0.0,0.0,0.0,0.0,1.0,0.0,0.0,0.0,0,0,0.0
0,0.14996164374881318,0.0,0.0,0.0,0.0,0.0,1.0,0.0,0.0,0.0,0,0,0.0
0,0.1555045445760091,0.0,0.0,0.0,0.0,0.0,1.0,0.0,0.0,0.0,0,0,0.0
0,0.161049034860399,0.0,0.0,0.0,0.0,0.0,1.0,0.0,0.0,0.0,0,0,0.0
0,0.1666050487094455,0.0,0.0,0.0,0.0,0.0,1.0,0.0,0.0,0.0,0,0,0.0
0,0.17215185695224336,0.0,0.0,0.0,0.0,0.0,1.0,0.0,0.0,0.0,0,0,0.0
0,0.17773475911882186,0.0,0.0,0.0,0.0,0.0,1.0,0.0,0.0,0.0,0,0,0.0
0,0.1832742161220974,0.0,0.0,0.0,0.0,0.0,1.0,0.0,0.0,0.0,0,0,0.0
0,0.18882592519124344,0.0,0.0,0.0,0.0,0.0,1.0,0.0,0.0,0.0,0,0,0.0
0,0.19438379340701628,0.0,0.0,0.0,0.0,0.0,1.0,0.0,0.0,0.0,0,0,0.0
0,0.19993616474999318,0.0,0.0,0.0,0.0,0.0,1.0,0.0,0.0,0.0,0,0,0.0
0,0.20560741424560544,0.0,0.0,0.0,0.0,0.0,1.0,0.0,0.0,0.0,0,0,0.0
0,0.21104945076836476,0.0,0.0,0.0,0.0,0.0,1.0,0.0,0.0,0.0,0,0,0.0
0,0.216604471206665,0.0,0.0,0.0,0.0,0.0,1.0,0.0,0.0,0.0,0,0,0.0
0,0.22215717368655732,0.0,0.0,0.0,0.0,0.0,1.0,0.0,0.0,0.0,0,0,0.0
0,0.22771563794877792,0.0,0.0,0.0,0.0,0.0,1.0,0.0,0.0,0.0,0,0,0.0
0,0.2332794666290283,0.0,0.0,0.0,0.0,0.0,1.0,0.0,0.0,0.0,0,0,0.0
0,0.23885210355122882,0.0,0.0,0.0,0.0,0.0,1.0,0.0,0.0,0.0,0,0,0.0
0,0.24438507027096218,0.0,0.0,0.0,0.0,0.0,1.0,0.0,0.0,0.0,0,0,0.0
0,0.24994942877027723,0.0,0.0,0.0,0.0,0.0,1.0,0.0,0.0,0.0,0,0,0.0
0,0.25565220250023735,0.0,0.0,0.0,0.0,0.0,1.0,0.0,0.0,0.0,0,0,0.0
0,0.2610624498791165,0.0,0.0,0.0,0.0,0.0,1.0,0.0,0.0,0.0,0,0,0.0
0,0.2666203843222724,0.0,0.0,0.0,0.0,0.0,1.0,0.0,0.0,0.0,0,0,0.0
0,0.2721573909123739,0.0,0.0,0.0,0.0,0.0,1.0,0.0,0.0,0.0,0,0,0.0
0,0.27771559026506215,0.0,0.0,0.0,0.0,0.0,1.0,0.0,0.0,0.0,0,0,0.0
0,0.2832609415054322,0.0,0.0,0.0,0.0,0.0,1.0,0.0,0.0,0.0,0,0,0.0
0,0.28882933987511533,0.0,0.0,0.0,0.0,0.0,1.0,0.0,0.0,0.0,0,0,0.0
0,0.2943872080908882,0.0,0.0,0.0,0.0,0.0,1.0,0.0,0.0,0.0,0,0,0.0
0,0.29995534155103903,0.0,0.0,0.0,0.0,0.0,1.0,0.0,0.0,0.0,0,0,0.0
0,0.3054926792780559,0.0,0.0,0.0,0.0,0.0,1.0,0.0,0.0,0.0,0,0,0.0
0,0.3110590245988635,0.0,0.0,0.0,0.0,0.0,1.0,0.0,0.0,0.0,0,0,0.0
0,0.31661762131585025,0.0,0.0,0.0,0.0,0.0,1.0,0.0,0.0,0.0,0,0,0.0
0,0.3221693303849963,0.0,0.0,0.0,0.0,0.0,1.0,0.0,0.0,0.0,0,0,0.0
0,0.3277378612094456,0.0,0.0,0.0,0.0,0.0,1.0,0.0,0.0,0.0,0,0,0.0
0,0.3332930803298951,0.0,0.0,0.0,0.0,0.0,1.0,0.0,0.0,0.0,0,0,0.0
0,0.33882790141635477,0.0,0.0,0.0,0.0,0.0,1.0,0.0,0.0,0.0,0,0,0.0
0,0.3443997436099583,0.0,0.0,0.0,0.0,0.0,1.0,0.0,0.0,0.0,0,0,0.0
0,0.34996178415086543,0.0,0.0,0.0,0.0,0.0,1.0,0.0,0.0,0.0,0,0,0.0
0,0.35550753275553393,0.0,0.0,0.0,0.0,0.0,1.0,0.0,0.0,0.0,0,0,0.0
0,0.36106169223785406,0.0,0.0,0.0,0.0,0.0,1.0,0.0,0.0,0.0,0,0,0.0
0,0.3665979703267416,0.0,0.0,0.0,0.0,0.0,1.0,0.0,0.0,0.0,0,0,0.0
0,0.37218054135640466,0.0,0.0,0.0,0.0,0.0,1.0,0.0,0.0,0.0,0,0,0.0
0,0.3777229123645359,0.0,0.0,0.0,0.0,0.0,1.0,0.0,0.0,0.0,0,0,0.0
0,0.38328362835778135,0.0,0.0,0.0,0.0,0.0,1.0,0.0,0.0,0.0,0,0,0.0
0,0.3888622257444594,0.0,0.0,0.0,0.0,0.0,1.0,0.0,0.0,0.0,0,0,0.0
0,0.39446155230204266,0.0,0.0,0.0,0.0,0.0,1.0,0.0,0.0,0.0,0,0,0.0
0,0.39994862344529897,0.0,0.0,0.0,0.0,0.0,1.0,0.0,0.0,0.0,0,0,0.0
0,0.40549728605482316,0.0,0.0,0.0,0.0,0.0,1.0,0.0,0.0,0.0,0,0,0.0
0,0.41105343235863584,0.0,0.0,0.0,0.0,0.0,1.0,0.0,0.0,0.0,0,0,0.0
0,0.4166250758700901,0.0,0.0,0.0,0.0,0.0,1.0,0.0,0.0,0.0,0,0,0.0
0,0.4222047328948975,0.0,0.0,0.0,0.0,0.0,1.0,0.0,0.0,0.0,0,0,0.0
0,0.4277208116319445,0.0,0.0,0.0,0.0,0.0,1.0,0.0,0.0,0.0,0,0,0.0
0,0.4332840442657471,0.0,0.0,0.0,0.0,0.0,1.0,0.0,0.0,0.0,0,0,0.0
0,0.4390718539555868,0.0,0.0,0.0,0.0,0.0,1.0,0.0,0.0,0.0,0,0,0.0
0,0.44438898563385015,0.0,0.0,0.0,0.0,0.0,1.0,0.0,0.0,0.0,0,0,0.0
0,0.4499324162801107,0.0,0.0,0.0,0.0,0.0,1.0,0.0,0.0,0.0,0,0,0.0
0,0.45565830336676705,0.0,0.0,0.0,0.0,0.0,1.0,0.0,0.0,0.0,0,0,0.0
0,0.4610689481099447,0.0,0.0,0.0,0.0,0.0,1.0,0.0,0.0,0.0,0,0,0.0
0,0.46662675009833443,0.0,0.0,0.0,0.0,0.0,1.0,0.0,0.0,0.0,0,0,0.0
0,0.472184419631958,0.0,0.0,0.0,0.0,0.0,1.0,0.0,0.0,0.0,0,0,0.0
0,0.4777493079503377,0.0,0.0,0.0,0.0,0.0,1.0,0.0,0.0,0.0,0,0,0.0
0,0.4833270443810357,0.0,0.0,0.0,0.0,0.0,1.0,0.0,0.0,0.0,0,0,0.0
0,0.48955301443735755,0.0,0.0,0.0,0.0,0.0,1.0,0.0,0.0,0.0,0,0,0.0
0,0.49441092544131804,0.0,0.0,0.0,0.0,0.0,1.0,0.0,0.0,0.0,0,0,0.0
0,0.5005524555842081,0.0,0.0,0.0,0.0,0.0,1.0,0.0,0.0,0.0,0,0,0.0
0,0.5055022901958889,0.0,0.0,0.0,0.0,0.0,1.0,0.0,0.0,0.0,0,0,0.0
0,0.5111398299535115,0.0,0.0,0.0,0.0,0.0,1.0,0.0,0.0,0.0,0,0,0.0
0,0.5166679620742797,0.0,0.0,0.0,0.0,0.0,1.0,0.0,0.0,0.0,0,0,0.0
0,0.5222037103441025,0.0,0.0,0.0,0.0,0.0,1.0,0.0,0.0,0.0,0,0,0.0
0,0.5277571413252088,0.0,0.0,0.0,0.0,0.0,1.0,0.0,0.0,0.0,0,0,0.0
0,0.533297856648763,0.0,0.0,0.0,0.0,0.0,1.0,0.0,0.0,0.0,0,0,0.0
0,0.5388833416832817,0.0,0.0,0.0,0.0,0.0,1.0,0.0,0.0,0.0,0,0,0.0
0,0.5444188250435722,0.0,0.0,0.0,0.0,0.0,1.0,0.0,0.0,0.0,0,0,0.0
0,0.550097624460856,0.0,0.0,0.0,0.0,0.0,1.0,0.0,0.0,0.0,0,0,0.0
0,0.5555214484532672,0.0,0.0,0.0,0.0,0.0,1.0,0.0,0.0,0.0,0,0,0.0
0,0.5610624286863537,0.0,0.0,0.0,0.0,0.0,1.0,0.0,0.0,0.0,0,0,0.0
0,0.5666976504855684,0.0,0.0,0.0,0.0,0.0,1.0,0.0,0.0,0.0,0,0,0.0
0,0.5722295575671724,0.0,0.0,0.0,0.0,0.0,1.0,0.0,0.0,0.0,0,0,0.0
0,0.5777575572331745,0.0,0.0,0.0,0.0,0.0,1.0,0.0,0.0,0.0,0,0,0.0
0,0.583537353409661,0.0,0.0,0.0,0.0,0.0,1.0,0.0,0.0,0.0,0,0,0.0
0,0.5889379978179929,0.0,0.0,0.0,0.0,0.0,1.0,0.0,0.0,0.0,0,0,0.0
0,0.5944483147727117,0.0,0.0,0.0,0.0,0.0,1.0,0.0,0.0,0.0,0,0,0.0
0,0.5999932686487831,0.0,0.0,0.0,0.0,0.0,1.0,0.0,0.0,0.0,0,0,0.0
0,0.6056667698754202,0.0,0.0,0.0,0.0,0.0,1.0,0.0,0.0,0.0,0,0,0.0
0,0.6111451652314925,0.0,0.0,0.0,0.0,0.0,1.0,0.0,0.0,0.0,0,0,0.0
0,0.6167364782757226,0.0,0.0,0.0,0.0,0.0,1.0,0.0,0.0,0.0,0,0,0.0
0,0.6225866079330441,0.0,0.0,0.0,0.0,0.0,1.0,0.0,0.0,0.0,0,0,0.0
0,0.6277498271730207,0.0,0.0,0.0,0.0,0.0,1.0,0.0,0.0,0.0,0,0,0.0
0,0.6333359082539872,0.0,0.0,0.0,0.0,0.0,1.0,0.0,0.0,0.0,0,0,0.0
0,0.6389521227942568,0.0,0.0,0.0,0.0,0.0,1.0,0.0,0.0,0.0,0,0,0.0
0,0.644398795233832,0.0,0.0,0.0,0.0,0.0,1.0,0.0,0.0,0.0,0,0,0.0
0,0.6500177913241912,0.0,0.0,0.0,0.0,0.0,1.0,0.0,0.0,0.0,0,0,0.0
0,0.6555901633368594,0.0,0.0,0.0,0.0,0.0,1.0,0.0,0.0,0.0,0,0,0.0
0,0.6610683600107824,0.0,0.0,0.0,0.0,0.0,1.0,0.0,0.0,0.0,0,0,0.0
0,0.6666670242945348,0.0,0.0,0.0,0.0,0.0,1.0,0.0,0.0,0.0,0,0,0.0
0,0.6721995274225866,0.0,0.0,0.0,0.0,0.0,1.0,0.0,0.0,0.0,0,0,0.0
0,0.6777515014012649,0.0,0.0,0.0,0.0,0.0,1.0,0.0,0.0,0.0,0,0,0.0
0,0.683402021725972,0.0,0.0,0.0,0.0,0.0,1.0,0.0,0.0,0.0,0,0,0.0
0,0.6889068418078947,0.0,0.0,0.0,0.0,0.0,1.0,0.0,0.0,0.0,0,0,0.0
0,0.6945076915952889,0.0,0.0,0.0,0.0,0.0,1.0,0.0,0.0,0.0,0,0,0.0
0,0.7001057598325936,0.0,0.0,0.0,0.0,0.0,1.0,0.0,0.0,0.0,0,0,0.0
0,0.7055544853210444,0.0,0.0,0.0,0.0,0.0,1.0,0.0,0.0,0.0,0,0,0.0
0,0.7110978497399219,0.0,0.0,0.0,0.0,0.0,1.0,0.0,0.0,0.0,0,0,0.0
0,0.7166161802079937,0.0,0.0,0.0,0.0,0.0,1.0,0.0,0.0,0.0,0,0,0.0
0,0.7222074270248408,0.0,0.0,0.0,0.0,0.0,1.0,0.0,0.0,0.0,0,0,0.0
0,0.7278301980760357,0.0,0.0,0.0,0.0,0.0,1.0,0.0,0.0,0.0,0,0,0.0
0,0.7333546214633512,0.0,0.0,0.0,0.0,0.0,1.0,0.0,0.0,0.0,0,0,0.0
0,0.7389084498087559,0.0,0.0,0.0,0.0,0.0,1.0,0.0,0.0,0.0,0,0,0.0
0,0.7444628742006084,0.0,0.0,0.0,0.0,0.0,1.0,0.0,0.0,0.0,0,0,0.0
0,0.7499562369452577,0.0,0.0,0.0,0.0,0.0,1.0,0.0,0.0,0.0,0,0,0.0
0,0.7555068201488914,0.0,0.0,0.0,0.0,0.0,1.0,0.0,0.0,0.0,0,0,0.0
0,0.7611155509948725,0.0,0.0,0.0,0.0,0.0,1.0,0.0,0.0,0.0,0,0,0.0
0,0.7666314310497703,0.0,0.0,0.0,0.0,0.0,1.0,0.0,0.0,0.0,0,0,0.0
0,0.7722441355387365,0.0,0.0,0.0,0.0,0.0,1.0,0.0,0.0,0.0,0,0,0.0
0,0.7777809434466887,0.0,0.0,0.0,0.0,0.0,1.0,0.0,0.0,0.0,0,0,0.0
0,0.783315433396233,0.0,0.0,0.0,0.0,0.0,1.0,0.0,0.0,0.0,0,0,0.0
0,0.7888983355628115,0.0,0.0,0.0,0.0,0.0,1.0,0.0,0.0,0.0,0,0,0.0
0,0.7950405942069155,0.0,0.0,0.0,0.0,0.0,1.0,0.0,0.0,0.0,0,0,0.0
0,0.8000784450107147,0.0,0.0,0.0,0.0,0.0,1.0,0.0,0.0,0.0,0,0,0.0
0,0.8055226670371157,0.0,0.0,0.0,0.0,0.0,1.0,0.0,0.0,0.0,0,0,0.0
0,0.8111072248882714,0.0,0.0,0.0,0.0,0.0,1.0,0.0,0.0,0.0,0,0,0.0
0,0.8166691329744123,0.0,0.0,0.0,0.0,0.0,1.0,0.0,0.0,0.0,0,0,0.0
0,0.8222285244199962,0.0,0.0,0.0,0.0,0.0,1.0,0.0,0.0,0.0,0,0,0.0
0,0.8277293046315508,0.0,0.0,0.0,0.0,0.0,1.0,0.0,0.0,0.0,0,0,0.0
0,0.8332924048105873,0.0,0.0,0.0,0.0,0.0,1.0,0.0,0.0,0.0,0,0,0.0
0,0.8389531903796723,0.0,0.0,0.0,0.0,0.0,1.0,0.0,0.0,0.0,0,0,0.0
0,0.8444826470481022,0.0,0.0,0.0,0.0,0.0,1.0,0.0,0.0,0.0,0,0,0.0
0,0.8501214451260034,0.0,0.0,0.0,0.0,0.0,1.0,0.0,0.0,0.0,0,0,0.0
0,0.8558271990882023,0.0,0.0,0.0,0.0,0.0,1.0,0.0,0.0,0.0,0,0,0.0
0,0.8611357874340478,0.0,0.0,0.0,0.0,0.0,1.0,0.0,0.0,0.0,0,0,0.0
0,0.8668016725116303,0.0,0.0,0.0,0.0,0.0,1.0,0.0,0.0,0.0,0,0,0.0
0,0.8723397387398611,0.0,0.0,0.0,0.0,0.0,1.0,0.0,0.0,0.0,0,0,0.0
0,0.8778495258755151,0.0,0.0,0.0,0.0,0.0,1.0,0.0,0.0,0.0,0,0,0.0
0,0.8834535545772974,0.0,0.0,0.0,0.0,0.0,1.0,0.0,0.0,0.0,0,0,0.0
0,0.8890330791473385,0.0,0.0,0.0,0.0,0.0,1.0,0.0,0.0,0.0,0,0,0.0
0,0.8945041894912716,0.0,0.0,0.0,0.0,0.0,1.0,0.0,0.0,0.0,0,0,0.0
0,0.9011577897601654,0.0,0.0,0.0,0.0,0.0,1.0,0.0,0.0,0.0,0,0,0.0
0,0.9057695335812035,0.0,0.0,0.0,0.0,0.0,1.0,0.0,0.0,0.0,0,0,0.0
0,0.9111387862099538,0.0,0.0,0.0,0.0,0.0,1.0,0.0,0.0,0.0,0,0,0.0
0,0.9166535403993391,0.0,0.0,0.0,0.0,0.0,1.0,0.0,0.0,0.0,0,0,0.0
0,0.9222132629818383,0.0,0.0,0.0,0.0,0.0,1.0,0.0,0.0,0.0,0,0,0.0
0,0.927773382928636,0.0,0.0,0.0,0.0,0.0,1.0,0.0,0.0,0.0,0,0,0.0
0,0.9333684709337019,0.0,0.0,0.0,0.0,0.0,1.0,0.0,0.0,0.0,0,0,0.0
0,0.9388364685906301,0.0,0.0,0.0,0.0,0.0,1.0,0.0,0.0,0.0,0,0,0.0
0,0.9444200992584225,0.0,0.0,0.0,0.0,0.0,1.0,0.0,0.0,0.0,0,0,0.0
0,0.9499693579143945,0.0,0.0,0.0,0.0,0.0,1.0,0.0,0.0,0.0,0,0,0.0
0,0.9555363655090329,0.0,0.0,0.0,0.0,0.0,1.0,0.0,0.0,0.0,0,0,0.0
0,0.9611258241865367,0.0,0.0,0.0,0.0,0.0,1.0,0.0,0.0,0.0,0,0,0.0
0,0.9666161404715641,0.0,0.0,0.0,0.0,0.0,1.0,0.0,0.0,0.0,0,0,0.0
0,0.9722078508800928,0.0,0.0,0.0,0.0,0.0,1.0,0.0,0.0,0.0,0,0,0.0
0,0.9777435329225326,0.0,0.0,0.0,0.0,0.0,1.0,0.0,0.0,0.0,0,0,0.0
0,0.9833649794260658,0.0,0.0,0.0,0.0,0.0,1.0,0.0,0.0,0.0,0,0,0.0
0,0.9889005290137395,0.0,0.0,0.0,0.0,0.0,1.0,0.0,0.0,0.0,0,0,0.0
0,0.994402766227722,0.0,0.0,0.0,0.0,0.0,1.0,0.0,0.0,0.0,0,0,0.0
0,0.9999935494528874,0.0,0.0,0.0,0.0,0.0,1.0,0.0,0.0,0.0,0,0,0.0
0,1.0055863194995454,0.0,0.0,0.0,0.0,0.0,1.0,0.0,0.0,0.0,0,0,0.0
0,1.0111681620279944,0.0,0.0,0.0,0.0,0.0,1.0,0.0,0.0,0.0,0,0,0.0
0,1.0168763664033673,0.0,0.0,0.0,0.0,0.0,1.0,0.0,0.0,0.0,0,0,0.0
0,1.0222105847464662,0.0,0.0,0.0,0.0,0.0,1.0,0.0,0.0,0.0,0,0,0.0
0,1.0278421640396114,0.0,0.0,0.0,0.0,0.0,1.0,0.0,0.0,0.0,0,0,0.0
0,1.0333332088258527,0.0,0.0,0.0,0.0,0.0,1.0,0.0,0.0,0.0,0,0,0.0
0,1.0388847192128494,0.0,0.0,0.0,0.0,0.0,1.0,0.0,0.0,0.0,0,0,0.0
0,1.0444366269641447,0.0,0.0,0.0,0.0,0.0,1.0,0.0,0.0,0.0,0,0,0.0
0,1.0499783356984451,0.0,0.0,0.0,0.0,0.0,1.0,0.0,0.0,0.0,0,0,0.0
0,1.0555490520265363,0.0,0.0,0.0,0.0,0.0,1.0,0.0,0.0,0.0,0,0,0.0
0,1.0612177186542082,0.0,0.0,0.0,0.0,0.0,1.0,0.0,0.0,0.0,0,0,0.0
0,1.0670402314927838,0.0,0.0,0.0,0.0,0.0,1.0,0.0,0.0,0.0,0,0,0.0
0,1.0721901390287607,0.0,0.0,0.0,0.0,0.0,1.0,0.0,0.0,0.0,0,0,0.0
0,1.0778061548868811,0.0,0.0,0.0,0.0,0.0,1.0,0.0,0.0,0.0,0,0,0.0
0,1.0833707782957285,0.0,0.0,0.0,0.0,0.0,1.0,0.0,0.0,0.0,0,0,0.0
0,1.0888966586854718,0.0,0.0,0.0,0.0,0.0,1.0,0.0,0.0,0.0,0,0,0.0
0,1.0944576395882495,0.0,0.0,0.0,0.0,0.0,1.0,0.0,0.0,0.0,0,0,0.0
0,1.1000132560729974,0.0,0.0,0.0,0.0,0.0,1.0,0.0,0.0,0.0,0,0,0.0
0,1.105620132552252,0.0,0.0,0.0,0.0,0.0,1.0,0.0,0.0,0.0,0,0,0.0
0,1.1111399200227519,0.0,0.0,0.0,0.0,0.0,1.0,0.0,0.0,0.0,0,0,0.0
0,1.1166377200020676,0.0,0.0,0.0,0.0,0.0,1.0,0.0,0.0,0.0,0,0,0.0
0,1.1222365829679692,0.0,0.0,0.0,0.0,0.0,1.0,0.0,0.0,0.0,0,0,0.0
0,1.1277616686291156,0.0,0.0,0.0,0.0,0.0,1.0,0.0,0.0,0.0,0,0,0.0
0,1.133316093020968,0.0,0.0,0.0,0.0,0.0,1.0,0.0,0.0,0.0,0,0,0.0
0,1.1388990614149297,0.0,0.0,0.0,0.0,0.0,1.0,0.0,0.0,0.0,0,0,0.0
0,1.14439566930135,0.0,0.0,0.0,0.0,0.0,1.0,0.0,0.0,0.0,0,0,0.0
0,1.1500061882866743,0.0,0.0,0.0,0.0,0.0,1.0,0.0,0.0,0.0,0,0,0.0
0,1.155532399813333,0.0,0.0,0.0,0.0,0.0,1.0,0.0,0.0,0.0,0,0,0.0
0,1.1610821882883697,0.0,0.0,0.0,0.0,0.0,1.0,0.0,0.0,0.0,0,0,0.0
0,1.1666351556777943,0.0,0.0,0.0,0.0,0.0,1.0,0.0,0.0,0.0,0,0,0.0
0,1.1722035540474776,0.0,0.0,0.0,0.0,0.0,1.0,0.0,0.0,0.0,0,0,0.0
0,1.1779726213879045,0.0,0.0,0.0,0.0,0.0,1.0,0.0,0.0,0.0,0,0,0.0
0,1.18334670861562,0.0,0.0,0.0,0.0,0.0,1.0,0.0,0.0,0.0,0,0,0.0
0,1.1894926097657936,0.0,0.0,0.0,0.0,0.0,1.0,0.0,0.0,0.0,0,0,0.0
0,1.1944553587171758,0.0,0.0,0.0,0.0,0.0,1.0,0.0,0.0,0.0,0,0,0.0
0,1.2005401982201462,0.0,0.0,0.0,0.0,0.0,1.0,0.0,0.0,0.0,0,0,0.0
0,1.2055796384811392,0.0,0.0,0.0,0.0,0.0,1.0,0.0,0.0,0.0,0,0,0.0
0,1.2111634016036978,0.0,0.0,0.0,0.0,0.0,1.0,0.0,0.0,0.0,0,0,0.0
0,1.2166517310672327,0.0,0.0,0.0,0.0,0.0,1.0,0.0,0.0,0.0,0,0,0.0
0,1.2222312556372739,0.0,0.0,0.0,0.0,0.0,1.0,0.0,0.0,0.0,0,0,0.0
0,1.2277232938342615,0.0,0.0,0.0,0.0,0.0,1.0,0.0,0.0,0.0,0,0,0.0
0,1.234334707260131,0.0,0.0,0.0,0.0,0.0,1.0,0.0,0.0,0.0,0,0,0.0
0,1.2390347984102028,0.0,0.0,0.0,0.0,0.0,1.0,0.0,0.0,0.0,0,0,0.0
0,1.244466371006435,0.0,0.0,0.0,0.0,0.0,1.0,0.0,0.0,0.0,0,0,0.0
0,1.2499729130003179,0.0,0.0,0.0,0.0,0.0,1.0,0.0,0.0,0.0,0,0,0.0
0,1.2556660837597309,0.0,0.0,0.0,0.0,0.0,1.0,0.0,0.0,0.0,0,0,0.0
0,1.2611264652676044,0.0,0.0,0.0,0.0,0.0,1.0,0.0,0.0,0.0,0,0,0.0
0,1.2667210896809888,0.0,0.0,0.0,0.0,0.0,1.0,0.0,0.0,0.0,0,0,0.0
0,1.27227849430508,0.0,0.0,0.0,0.0,0.0,1.0,0.0,0.0,0.0,0,0,0.0
0,1.2778482172224248,0.0,0.0,0.0,0.0,0.0,1.0,0.0,0.0,0.0,0,0,0.0
0,1.2833278708987756,0.0,0.0,0.0,0.0,0.0,1.0,0.0,0.0,0.0,0,0,0.0
0,1.2889143493440407,0.0,0.0,0.0,0.0,0.0,1.0,0.0,0.0,0.0,0,0,0.0
0,1.2944591707653461,0.0,0.0,0.0,0.0,0.0,1.0,0.0,0.0,0.0,0,0,0.0
0,1.300010018878512,0.0,0.0,0.0,0.0,0.0,1.0,0.0,0.0,0.0,0,0,0.0
0,1.3056212663650504,0.0,0.0,0.0,0.0,0.0,1.0,0.0,0.0,0.0,0,0,0.0
0,1.3114251693089793,0.0,0.0,0.0,0.0,0.0,1.0,0.0,0.0,0.0,0,0,0.0
0,1.3167043526967357,0.0,0.0,0.0,0.0,0.0,1.0,0.0,0.0,0.0,0,0,0.0
0,1.3222287760840512,0.0,0.0,0.0,0.0,0.0,1.0,0.0,0.0,0.0,0,0,0.0
0,1.32786730925242,0.0,0.0,0.0,0.0,0.0,1.0,0.0,0.0,0.0,0,0,0.0
0,1.3334453768200334,0.0,0.0,0.0,0.0,0.0,1.0,0.0,0.0,0.0,0,0,0.0
0,1.3389015197753895,0.0,0.0,0.0,0.0,0.0,1.0,0.0,0.0,0.0,0,0,0.0
0,1.3444284598032623,0.0,0.0,0.0,0.0,0.0,1.0,0.0,0.0,0.0,0,0,0.0
0,1.3499914275275327,0.0,0.0,0.0,0.0,0.0,1.0,0.0,0.0,0.0,0,0,0.0
0,1.3555771774715837,0.0,0.0,0.0,0.0,0.0,1.0,0.0,0.0,0.0,0,0,0.0
0,1.3611974318822215,0.0,0.0,0.0,0.0,0.0,1.0,0.0,0.0,0.0,0,0,0.0
0,1.3666444354587122,0.0,0.0,0.0,0.0,-0.0002201082031777116,0.9999999757761892,0.0,0.0,0.0,0,0,0.0
0,1.372201508407434,-2.446314861118477e-06,0.0,0.0,0.0,-0.0004441816731323665,0.9999999013513158,0.0,0.0,0.0,0,0,0.0
0,1.377833946434028,-7.449967834863643e-06,0.0,0.0,0.0,-0.000671294074487506,0.9999997746821074,0.0,0.0,0.0,0,0,0.0
0,1.383373067308132,-1.4886730903083546e-05,0.0,0.0,0.0,-0.0008938236167315549,0.9999996005395912,0.0,0.0,0.0,0,0,0.0
0,1.3888474140466847,-2.467294343289026e-05,0.0,0.0,0.0,-0.0011137510220753806,0.9999993797791381,0.0,0.0,0.0,0,0,0.0
0,1.3944257989118607,-3.7098830243517134e-05,0.0,0.0,0.0,-0.0013378582165242006,0.9999991050672958,0.0,0.0,0.0,0,0,0.0
0,1.399989740129403,-5.1986399161939314e-05,0.0,0.0,0.0,-0.0015608160805088889,0.9999987819258396,0.0,0.0,0.0,0,0,0.0
0,1.4055524820680796,-6.935129675637958e-05,0.0,0.0,0.0,-0.0017837260976383722,0.9999984091593389,0.0,0.0,0.0,0,0,0.0
0,1.4110858109413371,-8.909127720201098e-05,0.0,0.0,0.0,-0.002005457718057752,0.9999979890676486,0.0,0.0,0.0,0,0,0.0
0,1.416753968383882,-0.000111825914536192,0.0,0.0,0.0,-0.002232199145965094,0.999997508640383,0.0,0.0,0.0,0,0,0.0
0,1.4222811182403348,-0.00013650149734198755,0.0,0.0,0.0,-0.0024533002085050564,0.9999969906545154,0.0,0.0,0.0,0,0,0.0
0,1.4278392506869553,-0.00016377327853325454,0.0,0.0,0.0,-0.0026759127591995057,0.9999964197390434,0.0,0.0,0.0,0,0,0.0
0,1.4336069771062057,-0.00019464147551594052,0.0,0.0,0.0,-0.002906920288134246,0.9999957748982935,0.0,0.0,0.0,0,0,0.0
0,1.4390199145529765,-0.0002261118297776843,0.0,0.0,0.0,-0.003123718316641625,0.9999951211800377,0.0,0.0,0.0,0,0,0.0
0,1.4444754874478012,-0.00026019567460399854,0.0,0.0,0.0,-0.003343218996889161,0.9999944114277534,0.0,0.0,0.0,0,0,0.0
0,1.4499641578052944,-0.0002968959439251318,0.0,0.0,0.0,-0.003564541795777833,0.9999936470007128,0.0,0.0,0.0,0,0,0.0
0,1.4560453989444258,-0.00034025044664153013,0.0,0.0,0.0,-0.00380975971119581,0.9999927428391383,0.0,0.0,0.0,0,0,0.0
0,1.4611084678581905,-0.0003788294384907485,0.0,0.0,0.0,-0.004014460394795783,0.9999919420214038,0.0,0.0,0.0,0,0,0.0
0,1.4666990708824357,-0.00042371703245119337,0.0,0.0,0.0,-0.004240489894890384,0.9999910090823073,0.0,0.0,0.0,0,0,0.0
0,1.472314288743907,-0.0004713408661993043,0.0,0.0,0.0,-0.00446751520823072,0.999990020604138,0.0,0.0,0.0,0,0,0.0
0,1.477779551592572,-0.0005201746179849679,0.0,0.0,0.0,-0.005370760115380274,0.9999855773638853,0.0,0.0,0.0,0,0,0.0
0,1.4833566351251268,-0.0005800835657258688,0.0,0.0,0.0,-0.00629249750568557,0.9999802020415909,0.0,0.0,0.0,0,0,0.0
0,1.488930420075683,-0.000650233788044122,0.0,0.0,0.0,-0.007222134526101462,0.9999739200463614,0.0,0.0,0.0,0,0,0.0
0,1.494440228423129,-0.0007298251695134589,0.0,0.0,0.0,-0.008141118017796378,0.9999668605495986,0.0,0.0,0.0,0,0,0.0
0,1.50010774632564,-0.0008221142090635953,0.0,0.0,0.0,-0.009086425473259139,0.9999587175839405,0.0,0.0,0.0,0,0,0.0
0,1.5055839789423027,-0.0009216452949753985,0.0,0.0,0.0,-0.009997895877573429,0.9999500197899999,0.0,0.0,0.0,0,0,0.0
0,1.5111226595910723,-0.0010324122085639755,0.0,0.0,0.0,-0.010919669077483814,0.9999403786362656,0.0,0.0,0.0,0,0,0.0
0,1.5166705948690211,-0.0011535971192206881,0.0,0.0,0.0,-0.011843008786596795,0.9999298691122696,0.0,0.0,0.0,0,0,0.0
0,1.5222202169371926,-0.001285073227307198,0.0,0.0,0.0,-0.012767271016516774,0.9999184950738689,0.0,0.0,0.0,0,0,0.0
0,1.5283304819415382,-0.0014411342061460956,0.0,0.0,0.0,-0.013784939228451431,0.9999049832111389,0.0,0.0,0.0,0,0,0.0
0,1.533406602858228,-0.0015811221477297986,0.0,0.0,0.0,-0.014630405030144303,0.9998929698966055,0.0,0.0,0.0,0,0,0.0
0,1.5389503745359563,-0.0017433895021436137,0.0,0.0,0.0,-0.015555756507978516,0.9998790018994621,0.0,0.0,0.0,0,0,0.0
0,1.544654558639626,-0.0019209197451963973,0.0,0.0,0.0,-0.016507922897949275,0.9998637349567167,0.0,0.0,0.0,0,0,0.0
0,1.5499877230668984,-0.002097070692451995,0.0,0.0,0.0,-0.017401126387702692,0.9998485889375647,0.0,0.0,0.0,0,0,0.0
0,1.555643889102339,-0.0022940074722937885,0.0,0.0,0.0,-0.018348468723176994,0.9998316526773467,0.0,0.0,0.0,0,0,0.0
0,1.5610911298183119,-0.002494005537188428,0.0,0.0,0.0,-0.01926086476258192,0.9998144923377524,0.0,0.0,0.0,0,0,0.0
0,1.5666321680850328,-0.0027075747781304216,0.0,0.0,0.0,-0.02019656367411579,0.9997960286057138,0.0,0.0,0.0,0,0,0.0
0,1.5722397643295463,-0.0029342218253266238,0.0,0.0,0.0,-0.021143554001057985,0.9997764500748176,0.0,0.0,0.0,0,0,0.0
0,1.5778438112515172,-0.003171359811155426,0.0,0.0,0.0,-0.022090000144135626,0.9997559861754427,0.0,0.0,0.0,0,0,0.0
0,1.5832968788928603,-0.0034124528455809883,0.0,0.0,0.0,-0.02390728727849868,0.9997141799609444,0.0,0.0,0.0,0,0,0.0
0,1.5888646009772456,-0.003678899597533705,0.0,0.0,0.0,-0.025763013094961033,0.9996680784921907,0.0,0.0,0.0,0,0,0.0
0,1.5944172739161273,-0.003965291979743442,0.0,0.0,0.0,-0.02761397621533168,0.9996186614492444,0.0,0.0,0.0,0,0,0.0
0,1.5998700553864085,-0.0042667828895780625,0.0,0.0,0.0,-0.029441752803522823,0.9995664976337774,0.0,0.0,0.0,0,0,0.0
0,1.6061828801562574,-0.00463898826802336,0.0,0.0,0.0,-0.0315581352953667,0.999501918005503,0.0,0.0,0.0,0,0,0.0
0,1.6110242410897617,-0.004945014268810844,0.0,0.0,0.0,-0.03318153218985676,0.9994493413482914,0.0,0.0,0.0,0,0,0.0
0,1.6165302878756667,-0.0053110171451351065,0.0,0.0,0.0,-0.035026659008730386,0.999386378313556,0.0,0.0,0.0,0,0,0.0
0,1.6221177249936798,-0.005703157680018813,0.0,0.0,0.0,-0.036899410802430845,0.9993189848503997,0.0,0.0,0.0,0,0,0.0
0,1.6276156785037494,-0.006109731006774839,0.0,0.0,0.0,-0.03874254149861767,0.9992492259082455,0.0,0.0,0.0,0,0,0.0
0,1.6331865750279289,-0.006542367066197227,0.0,0.0,0.0,-0.04061358799157144,0.9991749278632099,0.0,0.0,0.0,0,0,0.0
0,1.638752445794461,-0.006995589162001852,0.0,0.0,0.0,-0.04248336121281175,0.9990971744630558,0.0,0.0,0.0,0,0,0.0
0,1.6442743487431053,-0.007466041750743225,0.0,0.0,0.0,-0.044347350765141375,0.999016172281567,0.0,0.0,0.0,0,0,0.0
0,1.6499071951673359,-0.007967124806790031,0.0,0.0,0.0,-0.04624924947009432,0.9989299309378276,0.0,0.0,0.0,0,0,0.0
0,1.6553214665369047,-0.008469550247006283,0.0,0.0,0.0,-0.04807782223030407,0.9988435928660659,0.0,0.0,0.0,0,0,0.0
0,1.6608895680469167,-0.00900681926059358,0.0,0.0,0.0,-0.049973457776981874,0.9987505461914963,0.0,0.0,0.0,0,0,0.0
0,1.6673070400012278,-0.00965064006750709,0.0,0.0,0.0,-0.05216614913538504,0.9986384194914517,0.0,0.0,0.0,0,0,0.0
0,1.6718903905330653,-0.01013079375736122,0.0,0.0,0.0,-0.053732718468574824,0.9985553539819296,0.0,0.0,0.0,0,0,0.0
0,1.6774273589816888,-0.010728417805651844,0.0,0.0,0.0,-0.05664532339876346,0.9983943646360638,0.0,0.0,0.0,0,0,0.0
0,1.6830056238402638,-0.011363443538579536,0.0,0.0,0.0,-0.05958106236360125,0.9982234704752362,0.0,0.0,0.0,0,0,0.0
0,1.6885874221929944,-0.01203214852678155,0.0,0.0,0.0,-0.06252016367851423,0.9980437010139445,0.0,0.0,0.0,0,0,0.0
0,1.6940310722514156,-0.012716845352766416,0.0,0.0,0.0,-0.06537851332979655,0.9978605363450274,0.0,0.0,0.0,0,0,0.0
0,1.6994801003349145,-0.013433950010650609,0.0,0.0,0.0,-0.06824125913140988,0.9976688481415864,0.0,0.0,0.0,0,0,0.0
0,1.7049929619048376,-0.014191662395685716,0.0,0.0,0.0,-0.07112966345350111,0.9974670776406566,0.0,0.0,0.0,0,0,0.0
0,1.710543168754155,-0.014987281931212255,0.0,0.0,0.0,-0.0740393964348531,0.9972553172460715,0.0,0.0,0.0,0,0,0.0
0,1.7159935964530815,-0.01580108169951767,0.0,0.0,0.0,-0.07689864632728444,0.9970389150845774,0.0,0.0,0.0,0,0,0.0
0,1.7218726385189502,-0.01671337460570151,0.0,0.0,0.0,-0.0799818021963071,0.9967963238884013,0.0,0.0,0.0,0,0,0.0
0,1.7270113803332097,-0.017543371942364237,0.0,0.0,0.0,-0.08267946821568851,0.996576191535585,0.0,0.0,0.0,0,0,0.0
0,1.7324084746745494,-0.01844510238626608,0.0,0.0,0.0,-0.08551462820630193,0.9963369150858248,0.0,0.0,0.0,0,0,0.0
0,1.737905678043204,-0.019395744643486774,0.0,0.0,0.0,-0.08840445881965434,0.9960846608902297,0.0,0.0,0.0,0,0,0.0
0,1.7434834577351448,-0.020393682993207617,0.0,0.0,0.0,-0.09133888026817659,0.9958198677227502,0.0,0.0,0.0,0,0,0.0
0,1.7488635399076335,-0.02138900353529625,0.0,0.0,0.0,-0.09417525052056981,0.9955556349041413,0.0,0.0,0.0,0,0,0.0
0,1.7544110993425066,-0.02244803025019479,0.0,0.0,0.0,-0.09711523176252762,0.9952731442974388,0.0,0.0,0.0,0,0,0.0
0,1.759761530450499,-0.023502219633444333,0.0,0.0,0.0,-0.0999531900032033,0.994992140576087,0.0,0.0,0.0,0,0,0.0
0,1.7651917298998727,-0.024604336668345855,0.0,0.0,0.0,-0.10283591336134887,0.9946983336284108,0.0,0.0,0.0,0,0,0.0
0,1.7706275736625428,-0.0257404383849597,0.0,0.0,0.0,-0.10574578722774948,0.9943931961169,0.0,0.0,0.0,0,0,0.0
0,1.776087819262489,-0.02691502854675326,0.0,0.0,0.0,-0.10868074887793804,0.9940767046980482,0.0,0.0,0.0,0,0,0.0
0,1.7815004913778787,-0.028112862718117592,0.0,0.0,0.0,-0.11159295317621258,0.9937540001436027,0.0,0.0,0.0,0,0,0.0
0,1.786948995536676,-0.02935216271190292,0.0,0.0,0.0,-0.11452732385355302,0.9934200984935544,0.0,0.0,0.0,0,0,0.0
0,1.7922687788616833,-0.030595276687073843,0.0,0.0,0.0,-0.11835043390282665,0.9929718902340653,0.0,0.0,0.0,0,0,0.0
0,1.7977179425422332,-0.031912946182688966,0.0,0.0,0.0,-0.12227187477440483,0.992496644145033,0.0,0.0,0.0,0,0,0.0
0,1.8032495561745734,-0.033296899101190436,0.0,0.0,0.0,-0.1262541769542376,0.991997924797027,0.0,0.0,0.0,0,0,0.0
0,1.8084532779823792,-0.03464329102664558,0.0,0.0,0.0,-0.13000622291566047,0.9915131779271538,0.0,0.0,0.0,0,0,0.0
0,1.8138463081931937,-0.03608228807038703,0.0,0.0,0.0,-0.13390053527965648,0.9909947762989578,0.0,0.0,0.0,0,0,0.0
0,1.819384559531907,-0.037606746729583695,0.0,0.0,0.0,-0.13790607945710587,0.9904453105794233,0.0,0.0,0.0,0,0,0.0
0,1.8245865371772647,-0.03908399553735657,0.0,0.0,0.0,-0.14166197606165123,0.9899150895598613,0.0,0.0,0.0,0,0,0.0
0,1.8300646822046867,-0.04068467790849931,0.0,0.0,0.0,-0.1456237110533444,0.989340050123845,0.0,0.0,0.0,0,0,0.0
0,1.836195159521846,-0.04252936842799393,0.0,0.0,0.0,-0.1500592920521055,0.988676999261549,0.0,0.0,0.0,0,0,0.0
0,1.8405390649752558,-0.04387907851576181,0.0,0.0,0.0,-0.15320965509243828,0.988193706510245,0.0,0.0,0.0,0,0,0.0
0,1.8459563146812805,-0.045600232558564664,0.0,0.0,0.0,-0.15714413334297292,0.9875756787992939,0.0,0.0,0.0,0,0,0.0
0,1.8511161671352285,-0.04728497221714048,0.0,0.0,0.0,-0.1608989690921225,0.98697088191349,0.0,0.0,0.0,0,0,0.0
0,1.8563673635525502,-0.04904384875231508,0.0,0.0,0.0,-0.16473141301611963,0.986338461972214,0.0,0.0,0.0,0,0,0.0
0,1.8617461631155527,-0.05089206125700131,0.0,0.0,0.0,-0.1686647573258541,0.9856734751611259,0.0,0.0,0.0,0,0,0.0
0,1.8668685157480178,-0.05269797545852321,0.0,0.0,0.0,-0.17242684131584798,0.985022326850432,0.0,0.0,0.0,0,0,0.0
0,1.8720719827130188,-0.05457728107603851,0.0,0.0,0.0,-0.17625634292913372,0.9843443003224266,0.0,0.0,0.0,0,0,0.0
0,1.8776150267762897,-0.05662810639637323,0.0,0.0,0.0,-0.18034442644431678,0.9836035216744958,0.0,0.0,0.0,0,0,0.0
0,1.8827552046293996,-0.05857858742703294,0.0,0.0,0.0,-0.1841664124087795,0.9828950770761238,0.0,0.0,0.0,0,0,0.0
0,1.8876321366285576,-0.060472680320224015,0.0,0.0,0.0,-0.18780091757533277,0.9822071142879505,0.0,0.0,0.0,0,0,0.0
0,1.8928627801531803,-0.06254880981330362,0.0,0.0,0.0,-0.19170749391631334,0.9814521062060678,0.0,0.0,0.0,0,0,0.0
0,1.8979542635065867,-0.06461675372107979,0.0,0.0,0.0,-0.19634357395384447,0.9805351604950386,0.0,0.0,0.0,0,0,0.0
0,1.9030979746703964,-0.06676276766078533,0.0,0.0,0.0,-0.20104099079381596,0.9795828295864729,0.0,0.0,0.0,0,0,0.0
0,1.9086591093685867,-0.06914577671389338,0.0,0.0,0.0,-0.2061146850021698,0.9785278415182964,0.0,0.0,0.0,0,0,0.0
0,1.9133418136149751,-0.07121007221092641,0.0,0.0,0.0,-0.2104019187970058,0.9776149715335472,0.0,0.0,0.0,0,0,0.0
0,1.9185200573179813,-0.07354724823946077,0.0,0.0,0.0,-0.21515667989132378,0.9765795426375378,0.0,0.0,0.0,0,0,0.0
0,1.9234903351336192,-0.0758490454733714,0.0,0.0,0.0,-0.21971157042964917,0.9755648752488669,0.0,0.0,0.0,0,0,0.0
0,1.9284717026099716,-0.07821268793154641,0.0,0.0,0.0,-0.22428589647877697,0.9745233894785242,0.0,0.0,0.0,0,0,0.0
0,1.9334798737371786,-0.08064687822075993,0.0,0.0,0.0,-0.2289005960668645,0.9734498020546484,0.0,0.0,0.0,0,0,0.0
0,1.9383728588689102,-0.08308266865246407,0.0,0.0,0.0,-0.2334252279429501,0.9723747543821681,0.0,0.0,0.0,0,0,0.0
0,1.9433560996122512,-0.08562149667027824,0.0,0.0,0.0,-0.23804472794101067,0.9712541930408796,0.0,0.0,0.0,0,0,0.0
0,1.948533776444179,-0.0883216888923854,0.0,0.0,0.0,-0.2428623095496091,0.9700607705707049,0.0,0.0,0.0,0,0,0.0
0,1.9531993763150197,-0.09081404639485292,0.0,0.0,0.0,-0.24721253200695645,0.9689612809698381,0.0,0.0,0.0,0,0,0.0
0,1.9580994841860575,-0.09348847405225763,0.0,0.0,0.0,-0.2517982044603277,0.967779760188523,0.0,0.0,0.0,0,0,0.0
0,1.9628875884559989,-0.09616093492555196,0.0,0.0,0.0,-0.25629837158089436,0.9665977160768495,0.0,0.0,0.0,0,0,0.0
0,1.9677552576439221,-0.0989375245286918,0.0,0.0,0.0,-0.2608916711933749,0.9653680831174852,0.0,0.0,0.0,0,0,0.0
0,1.9725280476800635,-0.10172048184090506,0.0,0.0,0.0,-0.2654144357064753,0.9641344186982505,0.0,0.0,0.0,0,0,0.0
0,1.9772767542605125,-0.104549387763979,0.0,0.0,0.0,-0.26994600810015723,0.9628754606442049,0.0,0.0,0.0,0,0,0.0
0,1.982033265363958,-0.10744390625912871,0.0,0.0,0.0,-0.27451151083809505,0.9615838135167347,0.0,0.0,0.0,0,0,0.0
0,1.9867442092162289,-0.110372311818993,0.0,0.0,0.0,-0.27905360039701493,0.9602755271824139,0.0,0.0,0.0,0,0,0.0
0,1.9914584027994837,-0.11336489081859674,0.0,0.0,0.0,-0.2842586299846363,0.9587476369093473,0.0,0.0,0.0,0,0,0.0
0,1.9960923786015483,-0.11637757445382223,0.0,0.0,0.0,-0.28940263898788987,0.9572074553339235,0.0,0.0,0.0,0,0,0.0
0,2.0007056977690243,-0.11944781123962496,0.0,0.0,0.0,-0.29455164593739586,0.9556355622702469,0.0,0.0,0.0,0,0,0.0
0,2.0052854186056837,-0.12256735524297972,0.0,0.0,0.0,-0.29965925284816286,0.9540462945698603,0.0,0.0,0.0,0,0,0.0
0,2.0098705699321475,-0.12576294170280844,0.0,0.0,0.0,-0.30480206533329207,0.952415718564409,0.0,0.0,0.0,0,0,0.0
0,2.014417414996413,-0.12900527830741174,0.0,0.0,0.0,-0.3098890555515748,0.9507727242876465,0.0,0.0,0.0,0,0,0.0
0,2.0188903819322834,-0.13226763050607254,0.0,0.0,0.0,-0.3149233864945287,0.9491170953253437,0.0,0.0,0.0,0,0,0.0
0,2.0233914327803117,-0.13562412323989684,0.0,0.0,0.0,-0.3200200470900158,0.9474107712394366,0.0,0.0,0.0,0,0,0.0
0,2.027808747809661,-0.13899266173556965,0.0,0.0,0.0,-0.32502027433500835,0.945707048335369,0.0,0.0,0.0,0,0,0.0
0,2.0322605889178615,-0.14246252107795762,0.0,0.0,0.0,-0.3300915084292258,0.9439489372116049,0.0,0.0,0.0,0,0,0.0
0,2.0365509289786097,-0.1458811647405653,0.0,0.0,0.0,-0.3350024904081366,0.9422172421582755,0.0,0.0,0.0,0,0,0.0
0,2.0408357366377428,-0.14936897199655372,0.0,0.0,0.0,-0.3399392704536247,0.940447389492606,0.0,0.0,0.0,0,0,0.0
0,2.0452760549437095,-0.15306146701877332,0.0,0.0,0.0,-0.3450742280001141,0.938575397701285,0.0,0.0,0.0,0,0,0.0
0,2.0499140959754127,-0.1570049338795146,0.0,0.0,0.0,-0.3504762044592151,0.9365716363994067,0.0,0.0,0.0,0,0,0.0
0,2.0535684864644597,-0.16018533178620176,0.0,0.0,0.0,-0.3548336456335878,0.9349294539837631,0.0,0.0,0.0,0,0,0.0
0,2.0577039638463375,-0.16385265853342118,0.0,0.0,0.0,-0.35970896667210045,0.9330645525877027,0.0,0.0,0.0,0,0,0.0
0,2.0618639611530756,-0.16762003919519947,0.0,0.0,0.0,-0.36464926376955714,0.9311449481323087,0.0,0.0,0.0,0,0,0.0
0,2.065860940110448,-0.17131765554584097,0.0,0.0,0.0,-0.3694242970017531,0.9292608292534236,0.0,0.0,0.0,0,0,0.0
0,2.0699723366433775,-0.17520020812444642,0.0,0.0,0.0,-0.3743730743324367,0.9272781681970518,0.0,0.0,0.0,0,0,0.0
0,2.0739492553041465,-0.17903680453889753,0.0,0.0,0.0,-0.37920241708867497,0.9253137451016853,0.0,0.0,0.0,0,0,0.0
0,2.077954413380276,-0.18298209623369863,0.0,0.0,0.0,-0.38410516437777015,0.923289349390713,0.0,0.0,0.0,0,0,0.0
0,2.0818638516020957,-0.18691568105103382,0.0,0.0,0.0,-0.3889309635899845,0.9212669024560506,0.0,0.0,0.0,0,0,0.0
0,2.0857093242651614,-0.19086675390486377,0.0,0.0,0.0,-0.39371802748030965,0.9192312629784815,0.0,0.0,0.0,0,0,0.0
0,2.089555659839191,-0.19490186636125206,0.0,0.0,0.0,-0.39885510946469555,0.9170139593560753,0.0,0.0,0.0,0,0,0.0
0,2.093287016073009,-0.19890511179674641,0.0,0.0,0.0,-0.40388600044420153,0.9148093236544905,0.0,0.0,0.0,0,0,0.0
0,2.097213962767789,-0.20321210502877696,0.0,0.0,0.0,-0.4092306697175257,0.9124309612033917,0.0,0.0,0.0,0,0,0.0
0,2.1007941782880875,-0.20723229141306587,0.0,0.0,0.0,-0.41412096326970116,0.9102218563518318,0.0,0.0,0.0,0,0,0.0
0,2.1044242888888873,-0.21139766441609573,0.0,0.0,0.0,-0.41912778299435716,0.9079272556335309,0.0,0.0,0.0,0,0,0.0
0,2.1079798588239163,-0.21556940275607472,0.0,0.0,0.0,-0.4240505812016746,0.9056385065701005,0.0,0.0,0.0,0,0,0.0
0,2.111587890580723,-0.21989700358721076,0.0,0.0,0.0,-0.42909774752038354,0.9032580600653023,0.0,0.0,0.0,0,0,0.0
0,2.1150879459760437,-0.22419165159166984,0.0,0.0,0.0,-0.43400703672231516,0.9009094805115079,0.0,0.0,0.0,0,0,0.0
0,2.1188609959085043,-0.22892556405183515,0.0,0.0,0.0,-0.4393564922200348,0.8983127922634223,0.0,0.0,0.0,0,0,0.0
0,2.1219271387628647,-0.23286783911204562,0.0,0.0,0.0,-0.4437581672577824,0.8961465778498593,0.0,0.0,0.0,0,0,0.0
0,2.1253597503156914,-0.23737180061441424,0.0,0.0,0.0,-0.44870438993281697,0.8936802394900643,0.0,0.0,0.0,0,0,0.0
0,2.1286217887218712,-0.24175153857715792,0.0,0.0,0.0,-0.4534529919942783,0.8912801939073015,0.0,0.0,0.0,0,0,0.0
0,2.1319016859302513,-0.2462544965454187,0.0,0.0,0.0,-0.4582838463266773,0.8888058934300709,0.0,0.0,0.0,0,0,0.0
0,2.1371615642800146,-0.25364297898897986,0.0,0.0,0.0,-0.4660975261153514,0.8847333474833812,0.0,0.0,0.0,0,0,0.0
0,2.138404745809798,-0.2554560565159166,0.0,0.0,0.0,-0.46798605256681186,0.883735851147238,0.0,0.0,0.0,0,0,0.0
0,2.1414266144506944,-0.2599038187442776,0.0,0.0,0.0,-0.47259640103824696,0.8812789806444361,0.0,0.0,0.0,0,0,0.0
0,2.144491955073707,-0.26451856409571955,0.0,0.0,0.0,-0.4773205984358184,0.8787292224052141,0.0,0.0,0.0,0,0,0.0
0,2.1475782658457607,-0.26927490036786206,0.0,0.0,0.0,-0.4821412975129647,0.8760934706026035,0.0,0.0,0.0,0,0,0.0
0,2.1505396227366846,-0.27395039085560746,0.0,0.0,0.0,-0.4868327549773857,0.8734952024373853,0.0,0.0,0.0,0,0,0.0
0,2.153437145848853,-0.27863552035823974,0.0,0.0,0.0,-0.4914857895499858,0.8708855944786474,0.0,0.0,0.0,0,0,0.0
0,2.15645447692591,-0.2836327857884811,0.0,0.0,0.0,-0.4964012980079943,0.8680931697323614,0.0,0.0,0.0,0,0,0.0
0,2.1592160342556164,-0.288325547084025,0.0,0.0,0.0,-0.5009733285453786,0.8654627225283388,0.0,0.0,0.0,0,0,0.0
0,2.1618599183997276,-0.29292876124155165,0.0,0.0,0.0,-0.505417275250853,0.8628750650459216,0.0,0.0,0.0,0,0,0.0
0,2.1645893226602277,-0.2977961070276852,0.0,0.0,0.0,-0.5100744541980612,0.8601302524470058,0.0,0.0,0.0,0,0,0.0
0,2.167274901954651,-0.30270906491393257,0.0,0.0,0.0,-0.5141450666701679,0.8577032414645106,0.0,0.0,0.0,0,0,0.0
0,2.1698977502303967,-0.3076172339338384,0.0,0.0,0.0,-0.5181794882963099,0.8552718970648893,0.0,0.0,0.0,0,0,0.0
0,2.172455018700743,-0.31251308812750567,0.0,0.0,0.0,-0.5221361137766076,0.8528621686358596,0.0,0.0,0.0,0,0,0.0
0,2.1749869342040182,-0.3174718267894368,0.0,0.0,0.0,-0.5260891397811649,0.8504294309372847,0.0,0.0,0.0,0,0,0.0
0,2.1775289758033067,-0.3225666285468174,0.0,0.0,0.0,-0.5301199232740619,0.8479226774582118,0.0,0.0,0.0,0,0,0.0
0,2.1799347125740685,-0.3275050503197622,0.0,0.0,0.0,-0.5339974215904694,0.8454861049921107,0.0,0.0,0.0,0,0,0.0
0,2.182292272217013,-0.33245931867694223,0.0,0.0,0.0,-0.5378389645185156,0.8430475954806175,0.0,0.0,0.0,0,0,0.0
0,2.1846112089284633,-0.3374489497348527,0.0,0.0,0.0,-0.5416802216539823,0.8405846402765712,0.0,0.0,0.0,0,0,0.0
0,2.1869280207347566,-0.34255542906808495,0.0,0.0,0.0,-0.5455833885515855,0.8380565411334546,0.0,0.0,0.0,0,0,0.0
0,2.1891941835950766,-0.34767633124071473,0.0,0.0,0.0,-0.5494524105337165,0.8355250137241185,0.0,0.0,0.0,0,0,0.0
0,2.1914049977666177,-0.3527996669298805,0.0,0.0,0.0,-0.5532959762541295,0.8329847313492545,0.0,0.0,0.0,0,0,0.0
0,2.193546966565643,-0.35789193787969464,0.0,0.0,0.0,-0.5570698826894753,0.830465619878592,0.0,0.0,0.0,0,0,0.0
0,2.1956328883233294,-0.3629796614207684,0.0,0.0,0.0,-0.560814846128523,0.8279412469262787,0.0,0.0,0.0,0,0,0.0
0,2.198033142130519,-0.36898812445963325,0.0,0.0,0.0,-0.5651929344420596,0.8249587546397539,0.0,0.0,0.0,0,0,0.0
0,2.1997278513743153,-0.3733644533801217,0.0,0.0,0.0,-0.5683585829414309,0.8227809679354576,0.0,0.0,0.0,0,0,0.0
0,2.2016666474607898,-0.3784876706321612,0.0,0.0,0.0,-0.5720408484603172,0.8202251323220963,0.0,0.0,0.0,0,0,0.0
0,2.2044489665659768,-0.3860438204440205,0.0,0.0,0.0,-0.5774310767699277,0.8164394353412394,0.0,0.0,0.0,0,0,0.0
0,2.205861291124521,-0.39004099499777045,0.0,0.0,0.0,-0.5802589154493781,0.814432066560196,0.0,0.0,0.0,0,0,0.0
0,2.2072808987584343,-0.39414927386633525,0.0,0.0,0.0,-0.5831510746262586,0.8123637265180171,0.0,0.0,0.0,0,0,0.0
0,2.2093812204852847,-0.4003704771305222,0.0,0.0,0.0,-0.5875125457369147,0.8092150570779869,0.0,0.0,0.0,0,0,0.0
0,2.2108061052175376,-0.4047457838159164,0.0,0.0,0.0,-0.5905588740861253,0.8069945577500062,0.0,0.0,0.0,0,0,0.0
0,2.212486850949341,-0.4100420345011324,0.0,0.0,0.0,-0.5942262967340614,0.8042978977155936,0.0,0.0,0.0,0,0,0.0
0,2.214116234917566,-0.4153433653136831,0.0,0.0,0.0,-0.5967278381859015,0.8024436971738145,0.0,0.0,0.0,0,0,0.0
0,2.2157207696982444,-0.4206820130488536,0.0,0.0,0.0,-0.5992304414395351,0.8005765909968764,0.0,0.0,0.0,0,0,0.0
0,2.2172912257719153,-0.42602816187223386,0.0,0.0,0.0,-0.6017260768864878,0.7987025281009172,0.0,0.0,0.0,0,0,0.0
0,2.2188441387874325,-0.4314392640613592,0.0,0.0,0.0,-0.6042415070938436,0.7968012306121023,0.0,0.0,0.0,0,0,0.0
0,2.22032425059032,-0.43672211347706286,0.0,0.0,0.0,-0.6066769267092095,0.7949484930476115,0.0,0.0,0.0,0,0,0.0
0,2.221773785900258,-0.4420204380828987,0.0,0.0,0.0,-0.6091096536594544,0.7930860166582561,0.0,0.0,0.0,0,0,0.0
0,2.2232149516318653,-0.4474178932900804,0.0,0.0,0.0,-0.6115663147961284,0.7911931765420394,0.0,0.0,0.0,0,0,0.0
0,2.224637413486275,-0.45288103185290285,0.0,0.0,0.0,-0.614042832992286,0.7892727027148523,0.0,0.0,0.0,0,0,0.0
0,2.225983979957673,-0.45818889932253243,0.0,0.0,0.0,-0.6164393294141849,0.787402408652266,0.0,0.0,0.0,0,0,0.0
0,2.227347667876266,-0.46370473837217363,0.0,0.0,0.0,-0.6189199131261148,0.7854540986817514,0.0,0.0,0.0,0,0,0.0
0,2.228626425394669,-0.46902076662484454,0.0,0.0,0.0,-0.6213011488961548,0.7835718744188807,0.0,0.0,0.0,0,0,0.0
0,2.2298926813145012,-0.4744289975726375,0.0,0.0,0.0,-0.6237143363614501,0.7816523694182701,0.0,0.0,0.0,0,0,0.0
0,2.2311646036900585,-0.48001644683963374,0.0,0.0,0.0,-0.6261977296007997,0.7796642889364652,0.0,0.0,0.0,0,0,0.0
0,2.2323387812112494,-0.4853305066035315,0.0,0.0,0.0,-0.6285503776846755,0.7777688748673681,0.0,0.0,0.0,0,0,0.0
0,2.233494392179649,-0.49071476281664245,0.0,0.0,0.0,-0.630925128560311,0.7758437227632605,0.0,0.0,0.0,0,0,0.0
0,2.2346162650946657,-0.4961021585534692,0.0,0.0,0.0,-0.6332923042980814,0.7739126936010459,0.0,0.0,0.0,0,0,0.0
0,2.2357061449595035,-0.501500982189307,0.0,0.0,0.0,-0.6356556133918508,0.7719727593402697,0.0,0.0,0.0,0,0,0.0
0,2.2369024348849864,-0.5076195785824299,0.0,0.0,0.0,-0.6383306840381948,0.7697622605813631,0.0,0.0,0.0,0,0,0.0
0,2.237814224978032,-0.5124612594602489,0.0,0.0,0.0,-0.6404392293262678,0.7680088499099318,0.0,0.0,0.0,0,0,0.0
0,2.238811324763451,-0.5179204048847219,0.0,0.0,0.0,-0.6428141047390977,0.7660222103493295,0.0,0.0,0.0,0,0,0.0
0,2.239779612013258,-0.5234140569511928,0.0,0.0,0.0,-0.6451951264587802,0.7640178327721406,0.0,0.0,0.0,0,0,0.0
0,2.2407108231467534,-0.5288967844485057,0.0,0.0,0.0,-0.6475744565365203,0.7620021806014929,0.0,0.0,0.0,0,0,0.0
0,2.2416158018694436,-0.5344340370394193,0.0,0.0,0.0,-0.6499685713110174,0.7599610886801474,0.0,0.0,0.0,0,0,0.0
0,2.242476482841464,-0.5399167476356821,0.0,0.0,0.0,-0.6523303867229604,0.7579347376640505,0.0,0.0,0.0,0,0,0.0
0,2.243288041159794,-0.5453052313280055,0.0,0.0,0.0,-0.6531873259087361,0.7571963531820493,0.0,0.0,0.0,0,0,0.0
0,2.244118057820811,-0.5509022242840199,0.0,0.0,0.0,-0.6540762392603655,0.7564286306288367,0.0,0.0,0.0,0,0,0.0
0,2.2449197029679646,-0.55639682211958,0.0,0.0,0.0,-0.6549477114819134,0.7556741991259225,0.0,0.0,0.0,0,0,0.0
0,2.245699043271505,-0.5618261246230842,0.0,0.0,0.0,-0.6557813014176872,0.7549509154315428,0.0,0.0,0.0,0,0,0.0
0,2.2464743751903664,-0.5673135951045111,0.0,0.0,0.0,-0.6566227461358146,0.7542191785264158,0.0,0.0,0.0,0,0,0.0
0,2.247239153960351,-0.5728149164609952,0.0,0.0,0.0,-0.6574652319004403,0.7534848829552591,0.0,0.0,0.0,0,0,0.0
0,2.248349023813587,-0.5809315811137776,0.0,0.0,0.0,-0.6587081973900336,0.7523985052425162,0.0,0.0,0.0,0,0,0.0
0,2.2487376729371706,-0.5838454778690497,0.0,0.0,0.0,-0.6591537877565339,0.7520081675661603,0.0,0.0,0.0,0,0,0.0
0,2.2494705513493023,-0.5893903556930168,0.0,0.0,0.0,-0.6600009330867037,0.7512647791056629,0.0,0.0,0.0,0,0,0.0
0,2.250185597801602,-0.5948958240799473,0.0,0.0,0.0,-0.6608441632581333,0.7505231454709825,0.0,0.0,0.0,0,0,0.0
0,2.2508901887153363,-0.6004178629346143,0.0,0.0,0.0,-0.6616888501267889,0.7497785443835319,0.0,0.0,0.0,0,0,0.0
0,2.2515852734292374,-0.6059648685515109,0.0,0.0,0.0,-0.6625362701619414,0.7490298329972599,0.0,0.0,0.0,0,0,0.0
0,2.252266226546405,-0.611500548515466,0.0,0.0,0.0,-0.66338599826912,0.7482773665563346,0.0,0.0,0.0,0,0,0.0
0,2.252926334003504,-0.616969182622964,0.0,0.0,0.0,-0.6642243638589297,0.7475332731432095,0.0,0.0,0.0,0,0,0.0
0,2.253576415147587,-0.6224581582243855,0.0,0.0,0.0,-0.6650737588419626,0.7467776746126138,0.0,0.0,0.0,0,0,0.0
0,2.2542152062421272,-0.6279588602145048,0.0,0.0,0.0,-0.6644122274775546,0.7473663037482452,0.0,0.0,0.0,0,0,0.0
0,2.254870958963568,-0.6335196556851889,0.0,0.0,0.0,-0.6637428007668101,0.7479608909764136,0.0,0.0,0.0,0,0,0.0
0,2.2555390542081883,-0.6390991925425243,0.0,0.0,0.0,-0.663044729113775,0.7485797801132761,0.0,0.0,0.0,0,0,0.0
0,2.25626656939297,-0.6450804110494659,0.0,0.0,0.0,-0.6622955923240147,0.7492426498726448,0.0,0.0,0.0,0,0,0.0
0,2.2568796014384054,-0.6500376515685291,0.0,0.0,0.0,-0.6616734395036942,0.749792144167536,0.0,0.0,0.0,0,0,0.0
0,2.257575490770343,-0.6555892285274156,0.0,0.0,0.0,-0.6609760098130347,0.7504070325174459,0.0,0.0,0.0,0,0,0.0
0,2.2582713452226746,-0.6610581023831639,0.0,0.0,0.0,-0.6602882496137809,0.7510122684896495,0.0,0.0,0.0,0,0,0.0
0,2.258979491636297,-0.6665432948996758,0.0,0.0,0.0,-0.6595957568229055,0.7516205409521606,0.0,0.0,0.0,0,0,0.0
0,2.259693740362921,-0.6719965720875898,0.0,0.0,0.0,-0.6589065725396526,0.7522247859942183,0.0,0.0,0.0,0,0,0.0
0,2.260426897392391,-0.6775156257766857,0.0,0.0,0.0,-0.6582083429577228,0.7528358235769926,0.0,0.0,0.0,0,0,0.0
0,2.2611680575201554,-0.6830167039626913,0.0,0.0,0.0,-0.6575075594502894,0.7534479472835028,0.0,0.0,0.0,0,0,0.0
0,2.2619188978123472,-0.6885123250516273,0.0,0.0,0.0,-0.6568067257016335,0.7540589665756248,0.0,0.0,0.0,0,0,0.0
0,2.262729417175419,-0.6943636066572368,0.0,0.0,0.0,-0.6560527092800696,0.7547150738167885,0.0,0.0,0.0,0,0,0.0
0,2.2634692305153172,-0.6996270125004685,0.0,0.0,0.0,-0.6553708969453068,0.7553072139448318,0.0,0.0,0.0,0,0,0.0
0,2.264247370964837,-0.7050914756793457,0.0,0.0,0.0,-0.6546622934210797,0.7559214784437945,0.0,0.0,0.0,0,0,0.0
0,2.265035503610061,-0.7105526999867439,0.0,0.0,0.0,-0.6539533440013476,0.7565348794797601,0.0,0.0,0.0,0,0,0.0
0,2.26584146374441,-0.7160643371127998,0.0,0.0,0.0,-0.6517513888508988,0.7584326780479099,0.0,0.0,0.0,0,0,0.0
0,2.2666937413034565,-0.7216650845967071,0.0,0.0,0.0,-0.6495062424484872,0.7603562592761679,0.0,0.0,0.0,0,0,0.0
0,2.267548432476499,-0.7270667433721856,0.0,0.0,0.0,-0.6473111450461602,0.7622258730186406,0.0,0.0,0.0,0,0,0.0
0,2.268456893967145,-0.7326012780079029,0.0,0.0,0.0,-0.6450543691654693,0.7641366767931889,0.0,0.0,0.0,0,0,0.0
0,2.2693716320506154,-0.7379750224099181,0.0,0.0,0.0,-0.642854748579127,0.7659881018849231,0.0,0.0,0.0,0,0,0.0
0,2.2703321443058413,-0.7434279474413216,0.0,0.0,0.0,-0.6406150533756545,0.7678621968742225,0.0,0.0,0.0,0,0,0.0
0,2.2713399431466827,-0.7489600012836418,0.0,0.0,0.0,-0.6383348868114384,0.7697587753831899,0.0,0.0,0.0,0,0,0.0
0,2.2723641768208864,-0.7543990934533357,0.0,0.0,0.0,-0.6360787117652725,0.7716241782364206,0.0,0.0,0.0,0,0,0.0
0,2.2734204531011617,-0.7598332007919152,0.0,0.0,0.0,-0.6338131165800481,0.7734862204661995,0.0,0.0,0.0,0,0,0.0
0,2.274526834056144,-0.7653520588359354,0.0,0.0,0.0,-0.631503932485622,0.7753726737867378,0.0,0.0,0.0,0,0,0.0
0,2.275652434355706,-0.7707980670751028,0.0,0.0,0.0,-0.6292169477274892,0.7772297168099674,0.0,0.0,0.0,0,0,0.0
0,2.2767928556585932,-0.7761563133990178,0.0,0.0,0.0,-0.6269492624928465,0.7790600889916488,0.0,0.0,0.0,0,0,0.0
0,2.277976187070893,-0.7815612599751035,0.0,0.0,0.0,-0.6246535286104541,0.7809020227880759,0.0,0.0,0.0,0,0,0.0
0,2.2792325195694283,-0.7871421887481909,0.0,0.0,0.0,-0.6222608852738665,0.782809932651716,0.0,0.0,0.0,0,0,0.0
0,2.2804622259305187,-0.7924529196785398,0.0,0.0,0.0,-0.6199754739419313,0.7846211899448534,0.0,0.0,0.0,0,0,0.0
0,2.2817254883597946,-0.7977673418344684,0.0,0.0,0.0,-0.6163606281539714,0.7874640157249357,0.0,0.0,0.0,0,0,0.0
0,2.2830623288931426,-0.8031699533125272,0.0,0.0,0.0,-0.6126641825218458,0.7903433427661919,0.0,0.0,0.0,0,0,0.0
0,2.284458422279912,-0.8085935359657692,0.0,0.0,0.0,-0.6089310233414026,0.7932231771780198,0.0,0.0,0.0,0,0,0.0
0,2.286239241628937,-0.8152510292099988,0.0,0.0,0.0,-0.6043387102556527,0.7967275088049454,0.0,0.0,0.0,0,0,0.0
0,2.287519858591106,-0.8198261338009961,0.0,0.0,0.0,-0.6011610731573328,0.7991278772013425,0.0,0.0,0.0,0,0,0.0
0,2.2889273100922045,-0.824704344255814,0.0,0.0,0.0,-0.5977586479821361,0.8016761183686144,0.0,0.0,0.0,0,0,0.0
0,2.29052140556759,-0.8300581430434494,0.0,0.0,0.0,-0.5940027173722143,0.8044630331807828,0.0,0.0,0.0,0,0,0.0
0,2.292160188217754,-0.8353795175483576,0.0,0.0,0.0,-0.590250258197228,0.8072203123671416,0.0,0.0,0.0,0,0,0.0
0,2.293823176040299,-0.8406059442487824,0.0,0.0,0.0,-0.5865414786766343,0.8099191896676035,0.0,0.0,0.0,0,0,0.0
0,2.2955855825207943,-0.8459738879325928,0.0,0.0,0.0,-0.5827092927100164,0.8126806754127924,0.0,0.0,0.0,0,0,0.0
0,2.297358623690231,-0.8512068947393808,0.0,0.0,0.0,-0.5789490728799214,0.8153637047425397,0.0,0.0,0.0,0,0,0.0
0,2.2996611532663938,-0.8578015544730683,0.0,0.0,0.0,-0.5741776727425234,0.8187307250396675,0.0,0.0,0.0,0,0,0.0
0,2.3010446942898075,-0.8616202390012903,0.0,0.0,0.0,-0.5713942431158189,0.820675708751088,0.0,0.0,0.0,0,0,0.0
0,2.3034025600297574,-0.8679926746509492,0.0,0.0,0.0,-0.5667159936929007,0.8239132129615765,0.0,0.0,0.0,0,0,0.0
0,2.3057636845005063,-0.8741574634084806,0.0,0.0,0.0,-0.5621531861770974,0.8270331282789932,0.0,0.0,0.0,0,0,0.0
0,2.306934957248832,-0.8771172203533147,0.0,0.0,0.0,-0.5599367672002399,0.8285353442897558,0.0,0.0,0.0,0,0,0.0
0,2.30904713722155,-0.8823721883148005,0.0,0.0,0.0,-0.5559731117349425,0.8312002761234895,0.0,0.0,0.0,0,0,0.0
0,2.3114850477195943,-0.888273997667415,0.0,0.0,0.0,-0.5514889956227644,0.8341821669797278,0.0,0.0,0.0,0,0,0.0
0,2.3133510452993526,-0.8926569154830872,0.0,0.0,0.0,-0.5481334144634685,0.8363909133584723,0.0,0.0,0.0,0,0,0.0
0,2.3155592760921224,-0.8977301955226414,0.0,0.0,0.0,-0.5442091250765166,0.8389495981186548,0.0,0.0,0.0,0,0,0.0
0,2.317791886201153,-0.9027309182623532,0.0,0.0,0.0,-0.5403131879433295,0.8414639974083955,0.0,0.0,0.0,0,0,0.0
0,2.320111038395324,-0.907798704645292,0.0,0.0,0.0,-0.5352814674797673,0.8446737539267494,0.0,0.0,0.0,0,0,0.0
0,2.3224854549493767,-0.9128277278364644,0.0,0.0,0.0,-0.530241443418018,0.8478466911429076,0.0,0.0,0.0,0,0,0.0
0,2.324930067892867,-0.9178496090770439,0.0,0.0,0.0,-0.525177446774525,0.8509927434469644,0.0,0.0,0.0,0,0,0.0
0,2.327409617991379,-0.9227926156862137,0.0,0.0,0.0,-0.520154704716653,0.8540720597005451,0.0,0.0,0.0,0,0,0.0
0,2.3299365410552086,-0.9276853503716992,0.0,0.0,0.0,-0.51513519524466,0.857108937428753,0.0,0.0,0.0,0,0,0.0
0,2.332525669878256,-0.9325574567069307,0.0,0.0,0.0,-0.5100882458767099,0.860122073556086,0.0,0.0,0.0,0,0,0.0
0,2.335224718363096,-0.9374954311743979,0.0,0.0,0.0,-0.5049458999648478,0.8631509938062343,0.0,0.0,0.0,0,0,0.0
0,2.337961482741627,-0.9423634294415818,0.0,0.0,0.0,-0.49982498934267033,0.8661264226593017,0.0,0.0,0.0,0,0,0.0
0,2.3407181056936643,-0.9471335872537531,0.0,0.0,0.0,-0.49475582539905394,0.8690320323404085,0.0,0.0,0.0,0,0,0.0
0,2.3435525930304024,-0.9519087939945575,0.0,0.0,0.0,-0.4896431931197506,0.8719228999352492,0.0,0.0,0.0,0,0,0.0
0,2.346430877004923,-0.9566305274670547,0.0,0.0,0.0,-0.4845374328051974,0.8747705277445902,0.0,0.0,0.0,0,0,0.0
0,2.349387216578389,-0.9613551142484403,0.0,0.0,0.0,-0.4793748035918785,0.8776102766497483,0.0,0.0,0.0,0,0,0.0
0,2.35243170079494,-0.9660954118805185,0.0,0.0,0.0,-0.47413925063384016,0.8804498685378859,0.0,0.0,0.0,0,0,0.0
0,2.355445099102533,-0.9706666234599145,0.0,0.0,0.0,-0.4690360521522581,0.8831790202339638,0.0,0.0,0.0,0,0,0.0
0,2.3585671687000898,-0.9752854481786674,0.0,0.0,0.0,-0.4638235645256635,0.8859275935372527,0.0,0.0,0.0,0,0,0.0
0,2.3617960918502954,-0.9799430840825115,0.0,0.0,0.0,-0.4585081898036889,0.8886901821686478,0.0,0.0,0.0,0,0,0.0
0,2.3649677813001047,-0.9844030789296816,0.0,0.0,0.0,-0.45335580602030245,0.8913296321494545,0.0,0.0,0.0,0,0,0.0
0,2.36824269284124,-0.9888971324179343,0.0,0.0,0.0,-0.44810506004619427,0.8939809031299252,0.0,0.0,0.0,0,0,0.0
0,2.371536163511529,-0.9933067162947427,0.0,0.0,0.0,-0.442876447960796,0.896582651985654,0.0,0.0,0.0,0,0,0.0
0,2.3749348860350814,-0.997748060649217,0.0,0.0,0.0,-0.43754799285823265,0.8991950588975297,0.0,0.0,0.0,0,0,0.0
0,2.3783656468670435,-1.002122697746324,0.0,0.0,0.0,-0.4322358146570912,0.9017606115415114,0.0,0.0,0.0,0,0,0.0
0,2.3818492338936816,-1.0064583602795008,0.0,0.0,0.0,-0.42660933539530876,0.9044359982627698,0.0,0.0,0.0,0,0,0.0
0,2.385436823574197,-1.0108112506486104,0.0,0.0,0.0,-0.42088601541716375,0.9071135331513156,0.0,0.0,0.0,0,0,0.0
0,2.3889585407898077,-1.0149758493262055,0.0,0.0,0.0,-0.4153676303103739,0.9096536328132508,0.0,0.0,0.0,0,0,0.0
0,2.3925957886463487,-1.019172573628128,0.0,0.0,0.0,-0.40976659245126185,0.9121904075963974,0.0,0.0,0.0,0,0,0.0
0,2.3963751586241884,-1.02342644063397,0.0,0.0,0.0,-0.4040116259134753,0.9147538500201845,0.0,0.0,0.0,0,0,0.0
0,2.400132261640251,-1.0275494267745666,0.0,0.0,0.0,-0.39838447281355477,0.9172185191223878,0.0,0.0,0.0,0,0,0.0
0,2.4039793368861075,-1.0316683393587471,0.0,0.0,0.0,-0.3926835245781914,0.9196736646902797,0.0,0.0,0.0,0,0,0.0
0,2.4077216098147662,-1.035576634385521,0.0,0.0,0.0,-0.3871959687822525,0.9219974412973027,0.0,0.0,0.0,0,0,0.0
0,2.41154214598609,-1.0394726299105073,0.0,0.0,0.0,-0.38167345233479755,0.9242972334605557,0.0,0.0,0.0,0,0,0.0
0,2.4156257066842373,-1.043538377051813,0.0,0.0,0.0,-0.37582664985362135,0.9266899855182441,0.0,0.0,0.0,0,0,0.0
0,2.4194694960092393,-1.0472698858342964,0.0,0.0,0.0,-0.3703776335294526,0.9288812672140194,0.0,0.0,0.0,0,0,0.0
0,2.423514478308815,-1.051105455493174,0.0,0.0,0.0,-0.3647155158014281,0.9311190002001346,0.0,0.0,0.0,0,0,0.0
0,2.4276227308041003,-1.054907096396285,0.0,0.0,0.0,-0.3590164530323406,0.9333312308350542,0.0,0.0,0.0,0,0,0.0
0,2.431734588649341,-1.0586197880145367,0.0,0.0,0.0,-0.353387280799435,0.9354771134395439,0.0,0.0,0.0,0,0,0.0
0,2.4358962459827196,-1.0622873980725307,0.0,0.0,0.0,-0.3477379908339219,0.93759175003345,0.0,0.0,0.0,0,0,0.0
0,2.44017726271143,-1.065969399310142,0.0,0.0,0.0,-0.3419744015674641,0.9397092681636032,0.0,0.0,0.0,0,0,0.0
0,2.444355882211068,-1.069474984216575,0.0,0.0,0.0,-0.33640829634540687,0.941716230161709,0.0,0.0,0.0,0,0,0.0
0,2.448627544701431,-1.0729733413661657,0.0,0.0,0.0,-0.3307618012287305,0.9437142739452051,0.0,0.0,0.0,0,0,0.0
0,2.453095654154145,-1.076544023434569,0.0,0.0,0.0,-0.32490212474980407,0.9457476456925826,0.0,0.0,0.0,0,0,0.0
0,2.457360958304455,-1.0798667790962544,0.0,0.0,0.0,-0.3193492340030136,0.9476370965415445,0.0,0.0,0.0,0,0,0.0
0,2.4620504299160086,-1.0834323677552797,0.0,0.0,0.0,-0.31328650376228306,0.9496586579189414,0.0,0.0,0.0,0,0,0.0
0,2.4662901857429063,-1.0865713177565826,0.0,0.0,0.0,-0.3078466336566742,0.9514359937201522,0.0,0.0,0.0,0,0,0.0
0,2.4707240383843274,-1.0897760604741966,0.0,0.0,0.0,-0.3025371619203705,0.9531375900976561,0.0,0.0,0.0,0,0,0.0
0,2.475253460104173,-1.09297359743672,0.0,0.0,0.0,-0.29714668657710325,0.9548318420833318,0.0,0.0,0.0,0,0,0.0
0,2.4798588626482023,-1.0961474040245789,0.0,0.0,0.0,-0.29176256604631134,0.9564907762514345,0.0,0.0,0.0,0,0,0.0
0,2.4844092277976615,-1.0992082378549752,0.0,0.0,0.0,-0.28647445376282177,0.9580878808028483,0.0,0.0,0.0,0,0,0.0
0,2.489125379053632,-1.102305464196313,0.0,0.0,0.0,-0.2810246543905351,0.9597005489342393,0.0,0.0,0.0,0,0,0.0
0,2.49377097547367,-1.1052813318391985,0.0,0.0,0.0,-0.2757371243071291,0.9612330821808178,0.0,0.0,0.0,0,0,0.0
0,2.4984745500129812,-1.1082218092001797,0.0,0.0,0.0,-0.27042680354273513,0.9627405382166365,0.0,0.0,0.0,0,0,0.0
0,2.504017761262376,-1.111602655730951,0.0,0.0,0.0,-0.26420060050292843,0.9644677509869846,0.0,0.0,0.0,0,0,0.0
0,2.508021814042058,-1.1139743181641406,0.0,0.0,0.0,-0.25973119705598313,0.9656809541851108,0.0,0.0,0.0,0,0,0.0
0,2.5128113633956253,-1.1167516415812266,0.0,0.0,0.0,-0.2544202904858977,0.9670937471564334,0.0,0.0,0.0,0,0,0.0
0,2.5178301693577314,-1.119588656856747,0.0,0.0,0.0,-0.24888191998841327,0.9685338351874347,0.0,0.0,0.0,0,0,0.0
0,2.5226526798584787,-1.1222423452190984,0.0,0.0,0.0,-0.2436221920341466,0.9698702117028223,0.0,0.0,0.0,0,0,0.0
0,2.527606373806896,-1.1248985870452786,0.0,0.0,0.0,-0.23824374568386128,0.9712053941584775,0.0,0.0,0.0,0,0,0.0
0,2.5323734466477905,-1.1273871321505389,0.0,0.0,0.0,-0.23311741691446367,0.9724485950070205,0.0,0.0,0.0,0,0,0.0
0,2.5372933614669186,-1.129889775356942,0.0,0.0,0.0,-0.22784866894785114,0.9736965564582698,0.0,0.0,0.0,0,0,0.0
0,2.5423055527233034,-1.1323714073199564,0.0,0.0,0.0,-0.22250338291341842,0.9749319179266236,0.0,0.0,0.0,0,0,0.0
0,2.5472577918324055,-1.134756060329737,0.0,0.0,0.0,-0.217254976622905,0.976114888285483,0.0,0.0,0.0,0,0,0.0
0,2.5523510358770287,-1.137141445277632,0.0,0.0,0.0,-0.2118853075980713,0.977294539237824,0.0,0.0,0.0,0,0,0.0
0,2.5573938844364577,-1.1394359608030353,0.0,0.0,0.0,-0.20658942600440572,0.9784277229633113,0.0,0.0,0.0,0,0,0.0
0,2.5624348188414436,-1.1416640210070739,0.0,0.0,0.0,-0.20131519666040298,0.9795265139819255,0.0,0.0,0.0,0,0,0.0
0,2.5675674472227272,-1.1438668122681313,0.0,0.0,0.0,-0.19596615832816233,0.9806106591252726,0.0,0.0,0.0,0,0,0.0
0,2.572787278276698,-1.1460398682196675,0.0,0.0,0.0,-0.19054533960479256,0.9816783961944432,0.0,0.0,0.0,0,0,0.0
0,2.5786744044930114,-1.1484147438169903,0.0,0.0,0.0,-0.18444847732139036,0.9828421842868877,0.0,0.0,0.0,0,0,0.0
0,2.5830533319132494,-1.1501183158001178,0.0,0.0,0.0,-0.1799312060615823,0.9836791962246759,0.0,0.0,0.0,0,0,0.0
0,2.5881619473440796,-1.1520519115782502,0.0,0.0,0.0,-0.17545599129869152,0.9844872752440194,0.0,0.0,0.0,0,0,0.0
0,2.593421000335369,-1.1539879491837493,0.0,0.0,0.0,-0.17086083675309183,0.9852951712375502,0.0,0.0,0.0,0,0,0.0
0,2.598607342254003,-1.1558424520524573,0.0,0.0,0.0,-0.1663409069935331,0.9860683052712772,0.0,0.0,0.0,0,0,0.0
0,2.6039100731887297,-1.1576839001368642,0.0,0.0,0.0,-0.16178451600273958,0.9868261094953656,0.0,0.0,0.0,0,0,0.0
0,2.6101281306657196,-1.159779042992492,0.0,0.0,0.0,-0.15645411728210487,0.9876852277853898,0.0,0.0,0.0,0,0,0.0
0,2.6145378483723327,-1.1612120411413103,0.0,0.0,0.0,-0.1526846346517147,0.9882749629234125,0.0,0.0,0.0,0,0,0.0
0,2.6197233707404837,-1.162853507416984,0.0,0.0,0.0,-0.14829821413476912,0.9889426877652912,0.0,0.0,0.0,0,0,0.0
0,2.625051023413263,-1.164488094682041,0.0,0.0,0.0,-0.1438009858916262,0.9896066271284749,0.0,0.0,0.0,0,0,0.0
0,2.630506009163571,-1.1661076335370044,0.0,0.0,0.0,-0.13920582602725215,0.990263468981902,0.0,0.0,0.0,0,0,0.0
0,2.635707656390944,-1.1675995539477766,0.0,0.0,0.0,-0.1348592125133466,0.9908647701882836,0.0,0.0,0.0,0,0,0.0
0,2.641026156485091,-1.1690746003102606,0.0,0.0,0.0,-0.13042326802818233,0.9914584061658104,0.0,0.0,0.0,0,0,0.0
0,2.6464411968972787,-1.1705243510743053,0.0,0.0,0.0,-0.12591513368113502,0.992041016848629,0.0,0.0,0.0,0,0,0.0
0,2.6518723997776013,-1.1719256403380731,0.0,0.0,0.0,-0.1214218698968606,0.9926009920963962,0.0,0.0,0.0,0,0,0.0
0,2.6572975588492964,-1.1732730899432802,0.0,0.0,0.0,-0.11694140842116053,0.9931388155723626,0.0,0.0,0.0,0,0,0.0
0,2.6626831894804592,-1.1745592307173827,0.0,0.0,0.0,-0.11251166373185595,0.9936504040779582,0.0,0.0,0.0,0,0,0.0
0,2.6680011951782285,-1.1757791943839626,0.0,0.0,0.0,-0.10814447536304393,0.9941351882155928,0.0,0.0,0.0,0,0,0.0
0,2.6735064175671974,-1.176991281075836,0.0,0.0,0.0,-0.10363027300404186,0.9946158889325606,0.0,0.0,0.0,0,0,0.0
0,2.678902917705663,-1.1781281590071857,0.0,0.0,0.0,-0.09921206192896177,0.9950663127489564,0.0,0.0,0.0,0,0,0.0
0,2.68431547059293,-1.1792183020126519,0.0,0.0,0.0,-0.09478463636807509,0.995497801458432,0.0,0.0,0.0,0,0,0.0
0,2.6899311242573365,-1.1802974550505867,0.0,0.0,0.0,-0.09019713503942346,0.9959239312471008,0.0,0.0,0.0,0,0,0.0
0,2.695216336167268,-1.181262696266445,0.0,0.0,0.0,-0.08587714880951906,0.9963057338549988,0.0,0.0,0.0,0,0,0.0
0,2.700701818938675,-1.1822154234408409,0.0,0.0,0.0,-0.0821938467408797,0.9966163612734525,0.0,0.0,0.0,0,0,0.0
0,2.706205432226818,-1.1831294383236517,0.0,0.0,0.0,-0.07850188232756398,0.9969139654308335,0.0,0.0,0.0,0,0,0.0
0,2.711673867650885,-1.1839960345887712,0.0,0.0,0.0,-0.07487381078919009,0.9971930166511921,0.0,0.0,0.0,0,0,0.0
0,2.7173299888784577,-1.1848502251351254,0.0,0.0,0.0,-0.07112440079342137,0.997467452908503,0.0,0.0,0.0,0,0,0.0
0,2.722682417637887,-1.1856174356351186,0.0,0.0,0.0,-0.06757930589642215,0.9977139055934611,0.0,0.0,0.0,0,0,0.0
0,2.7282131447894318,-1.186370127153487,0.0,0.0,0.0,-0.06394046477714718,0.9979537148405644,0.0,0.0,0.0,0,0,0.0
0,2.7343848565663125,-1.1871642497282082,0.0,0.0,0.0,-0.05988281796222692,0.9982054137866128,0.0,0.0,0.0,0,0,0.0
0,2.7392810437762205,-1.187753820713042,0.0,0.0,0.0,-0.05668978059029539,0.9983918413011117,0.0,0.0,0.0,0,0,0.0
0,2.74473784790565,-1.188375511714452,0.0,0.0,0.0,-0.05313312338504362,0.9985874379338795,0.0,0.0,0.0,0,0,0.0
0,2.750337432291065,-1.188973092082699,0.0,0.0,0.0,-0.049485572050886134,0.9987748385691324,0.0,0.0,0.0,0,0,0.0
0,2.7558407961963503,-1.1895197764562324,0.0,0.0,0.0,-0.045921212823400434,0.9989450646621304,0.0,0.0,0.0,0,0,0.0
0,2.7613410629171056,-1.1900265386622133,0.0,0.0,0.0,-0.04236070899441212,0.9991023823079849,0.0,0.0,0.0,0,0,0.0
0,2.7673878313202644,-1.19054021311967,0.0,0.0,0.0,-0.038459539751224577,0.9992601582181309,0.0,0.0,0.0,0,0,0.0
0,2.7727013172326527,-1.1909498309465258,0.0,0.0,0.0,-0.03503448137687146,0.9993861041232531,0.0,0.0,0.0,0,0,0.0
0,2.778008567368472,-1.1913223907378687,0.0,0.0,0.0,-0.031614758568544864,0.9995001285846103,0.0,0.0,0.0,0,0,0.0
0,2.783901993735223,-1.1916955889880323,0.0,0.0,0.0,-0.027818636340117792,0.9996129868464977,0.0,0.0,0.0,0,0,0.0
0,2.789004057183767,-1.1919797838874264,0.0,0.0,0.0,-0.02453313892962696,0.9996990172518224,0.0,0.0,0.0,0,0,0.0
0,2.794609806937777,-1.1922550857707657,0.0,0.0,0.0,-0.02092422964650748,0.9997810643404386,0.0,0.0,0.0,0,0,0.0
0,2.8000822802749847,-1.1924842508766778,0.0,0.0,0.0,-0.01740201570325127,0.9998485734597333,0.0,0.0,0.0,0,0,0.0
0,2.805690195438953,-1.19267951764236,0.0,0.0,0.0,-0.01485216634311149,0.9998897004944678,0.0,0.0,0.0,0,0,0.0
0,2.8113598035046463,-1.1928479853142964,0.0,0.0,0.0,-0.012274592099685825,0.9999246643566636,0.0,0.0,0.0,0,0,0.0
