time,x,y,z,w0,w1,w2,w3,vx,vy,vz,roll,pitch,yaw
0,0.0,0.0,0.0,0.0,0.0,0.0,1.0,0.0,0.0,0.0,0,0,0.0
0,0.0,0.0,0.0,0.0,0.0,0.0,1.0,0.0,0.0,0.0,0,0,0.0
0,0.0,0.0,0.0,0.0,0.0,0.0,1.0,0.0,0.0,0.0,0,0,0.0
0,0.0,0.0,0.0,0.0,0.0,0.0,1.0,0.0,0.0,0.0,0,0,0.0
0,0.0,0.0,0.0,0.0,0.0,0.0,1.0,0.0,0.0,0.0,0,0,0.0
0,0.0,0.0,0.0,0.0,0.0,0.0,1.0,0.0,0.0,0.0,0,0,0.0
0,0.0,0.0,0.0,0.0,0.0,0.0,1.0,0.0,0.0,0.0,0,0,0.0
0,0.0,0.0,0.0,0.0,0.0,0.0,1.0,0.0,0.0,0.0,0,0,0.0
0,0.0,0.0,0.0,0.0,0.0,0.0,1.0,0.0,0.0,0.0,0,0,0.0
0,0.0,0.0,0.0,0.0,0.0,0.0,1.0,0.0,0.0,0.0,0,0,0.0
0,0.0,0.0,0.0,0.0,0.0,0.0,1.0,0.0,0.0,0.0,0,0,0.0
0,0.0,0.0,0.0,0.0,0.0,0.0,1.0,0.0,0.0,0.0,0,0,0.0
0,0.0,0.0,0.0,0.0,0.0,0.0,1.0,0.0,0.0,0.0,0,0,0.0
0,0.0,0.0,0.0,0.0,0.0,0.0,1.0,0.0,0.0,0.0,0,0,0.0
0,0.0,0.0,0.0,0.0,0.0,0.0,1.0,0.0,0.0,0.0,0,0,0.0
0,0.0,0.0,0.0,0.0,0.0,0.0,1.0,0.0,0.0,0.0,0,0,0.0
0,0.0,0.0,0.0,0.0,0.0,0.0,1.0,0.0,0.0,0.0,0,0,0.0
0,0.0,0.0,0.0,0.0,0.0,0.0,1.0,0.0,0.0,0.0,0,0,0.0
0,0.0,0.0,0.0,0.0,0.0,0.0,1.0,0.0,0.0,0.0,0,0,0.0
0,0.0,0.0,0.0,0.0,0.0,0.0,1.0,0.0,0.0,0.0,0,0,0.0
0,0.0,0.0,0.0,0.0,0.0,0.0,1.0,0.0,0.0,0.0,0,0,0.0
0,0.0,0.0,0.0,0.0,0.0,0.0,1.0,0.0,0.0,0.0,0,0,0.0
0,0.0,0.0,0.0,0.0,0.0,0.0,1.0,0.0,0.0,0.0,0,0,0.0
0,0.0,0.0,0.0,0.0,0.0,0.0,1.0,0.0,0.0,0.0,0,0,0.0
0,0.0,0.0,0.0,0.0,0.0,0.0,1.0,0.0,0.0,0.0,0,0,0.0
0,0.0,0.0,0.0,0.0,0.0,0.0,1.0,0.0,0.0,0.0,0,0,0.0
0,0.0,0.0,0.0,0.0,0.0,0.0,1.0,0.0,0.0,0.0,0,0,0.0
0,0.0,0.0,0.0,0.0,0.0,0.0,1.0,0.0,0.0,0.0,0,0,0.0
0,0.0,0.0,0.0,0.0,0.0,0.0,1.0,0.0,0.0,0.0,0,0,0.0
0,0.0,0.0,0.0,0.0,0.0,0.0,1.0,0.0,0.0,0.0,0,0,0.0
0,0.0,0.0,0.0,0.0,0.0,0.0,1.0,0.0,0.0,0.0,0,0,0.0
0,0.0,0.0,0.0,0.0,0.0,0.0,1.0,0.0,0.0,0.0,0,0,0.0
0,0.0,0.0,0.0,0.0,0.0,0.0,1.0,0.0,0.0,0.0,0,0,0.0
0,0.0,0.0,0.0,0.0,0.0,0.0,1.0,0.0,0.0,0.0,0,0,0.0
0,0.0,0.0,0.0,0.0,0.0,0.0,1.0,0.0,0.0,0.0,0,0,0.0
0,0.0,0.0,0.0,0.0,0.0,0.0,1.0,0.0,0.0,0.0,0,0,0.0
0,0.0,0.0,0.0,0.0,0.0,0.0,1.0,0.0,0.0,0.0,0,0,0.0
0,0.0,0.0,0.0,0.0,0.0,0.0,1.0,0.0,0.0,0.0,0,0,0.0
0,0.0,0.0,0.0,0.0,0.0,0.0,1.0,0.0,0.0,0.0,0,0,0.0
0,0.0,0.0,0.0,0.0,0.0,0.0,1.0,0.0,0.0,0.0,0,0,0.0
0,0.0,0.0,0.0,0.0,0.0,0.0,1.0,0.0,0.0,0.0,0,0,0.0
0,0.0055681996875339085,0.0,0.0,0.0,0.0,0.0,1.0,0.0,0.0,0.0,0,0,0.0
0,0.0110777219136556,0.0,0.0,0.0,0.0,0.0,1.0,0.0,0.0,0.0,0,0,0.0
0,0.01662082142300076,0.0,0.0,0.0,0.0,0.0,1.0,0.0,0.0,0.0,0,0,0.0
0,0.022186703152126737,0.0,0.0,0.0,0.0,0.0,1.0,0.0,0.0,0.0,0,0,0.0
0,0.02774073017968072,0.0,0.0,0.0,0.0,0.0,1.0,0.0,0.0,0.0,0,0,0.0
0,0.03329157829284668,0.0,0.0,0.0,0.0,0.0,1.0,0.0,0.0,0.0,0,0,0.0
0,0.03884553909301758,0.0,0.0,0.0,0.0,0.0,1.0,0.0,0.0,0.0,0,0,0.0
0,0.04458036687639025,0.0,0.0,0.0,0.0,0.0,1.0,0.0,0.0,0.0,0,0,0.0
0,0.049971275859408915,0.0,0.0,0.0,0.0,0.0,1.0,0.0,0.0,0.0,0,0,0.0
0,0.05600068304273818,0.0,0.0,0.0,0.0,0.0,1.0,0.0,0.0,0.0,0,0,0.0
0,0.061143967840406634,0.0,0.0,0.0,0.0,0.0,1.0,0.0,0.0,0.0,0,0,0.0
0,0.06664004590776232,0.0,0.0,0.0,0.0,0.0,1.0,0.0,0.0,0.0,0,0,0.0
0,0.0722409619225396,0.0,0.0,0.0,0.0,0.0,1.0,0.0,0.0,0.0,0,0,0.0
0,0.07778763771057129,0.0,0.0,0.0,0.0,0.0,1.0,0.0,0.0,0.0,0,0,0.0
0,0.08336418204837376,0.0,0.0,0.0,0.0,0.0,1.0,0.0,0.0,0.0,0,0,0.0
0,0.08885257773929173,0.0,0.0,0.0,0.0,0.0,1.0,0.0,0.0,0.0,0,0,0.0
0,0.09441488318973118,0.0,0.0,0.0,0.0,0.0,1.0,0.0,0.0,0.0,0,0,0.0
0,0.09998063246409099,0.0,0.0,0.0,0.0,0.0,1.0,0.0,0.0,0.0,0,0,0.0
0,0.10556552145216201,0.0,0.0,0.0,0.0,0.0,1.0,0.0,0.0,0.0,0,0,0.0
0,0.11108371946546768,0.0,0.0,0.0,0.0,0.0,1.0,0.0,0.0,0.0,0,0,0.0
0,0.11675947242312962,0.0,0.0,0.0,0.0,0.0,1.0,0.0,0.0,0.0,0,0,0.0
0,0.12219369411468506,0.0,0.0,0.0,0.0,0.0,1.0,0.0,0.0,0.0,0,0,0.0
0,0.1277462641398112,0.0,0.0,0.0,0.0,0.0,1.0,0.0,0.0,0.0,0,0,0.0
0,0.1333059204949273,0.0,0.0,0.0,0.0,0.0,1.0,0.0,0.0,0.0,0,0,0.0
0,0.13885955015818277,0.0,0.0,0.0,0.0,0.0,1.0,0.0,0.0,0.0,0,0,0.0
0,0.14441715346442327,0.0,0.0,0.0,0.0,0.0,1.0,0.0,0.0,0.0,0,0,0.0
0,0.14996820025973848,0.0,0.0,0.0,0.0,0.0,1.0,0.0,0.0,0.0,0,0,0.0
0,0.15551169713338214,0.0,0.0,0.0,0.0,0.0,1.0,0.0,0.0,0.0,0,0,0.0
0,0.1610710885789659,0.0,0.0,0.0,0.0,0.0,1.0,0.0,0.0,0.0,0,0,0.0
0,0.16663339402940536,0.0,0.0,0.0,0.0,0.0,1.0,0.0,0.0,0.0,0,0,0.0
0,0.17218742105695933,0.0,0.0,0.0,0.0,0.0,1.0,0.0,0.0,0.0,0,0,0.0
0,0.17775144841935897,0.0,0.0,0.0,0.0,0.0,1.0,0.0,0.0,0.0,0,0,0.0
0,0.18331554200914169,0.0,0.0,0.0,0.0,0.0,1.0,0.0,0.0,0.0,0,0,0.0
0,0.18918355305989581,0.0,0.0,0.0,0.0,0.0,1.0,0.0,0.0,0.0,0,0,0.0
0,0.19441670841640896,0.0,0.0,0.0,0.0,0.0,1.0,0.0,0.0,0.0,0,0,0.0
0,0.2000153727001614,0.0,0.0,0.0,0.0,0.0,1.0,0.0,0.0,0.0,0,0,0.0
0,0.2056304613749186,0.0,0.0,0.0,0.0,0.0,1.0,0.0,0.0,0.0,0,0,0.0
0,0.21108541223737928,0.0,0.0,0.0,0.0,0.0,1.0,0.0,0.0,0.0,0,0,0.0
0,0.216764940155877,0.0,0.0,0.0,0.0,0.0,1.0,0.0,0.0,0.0,0,0,0.0
0,0.22222532166375053,0.0,0.0,0.0,0.0,0.0,1.0,0.0,0.0,0.0,0,0,0.0
0,0.22777027553982204,0.0,0.0,0.0,0.0,0.0,1.0,0.0,0.0,0.0,0,0,0.0
0,0.23330748081207275,0.0,0.0,0.0,0.0,0.0,1.0,0.0,0.0,0.0,0,0,0.0
0,0.23896581596798366,0.0,0.0,0.0,0.0,0.0,1.0,0.0,0.0,0.0,0,0,0.0
0,0.24441063404083252,0.0,0.0,0.0,0.0,0.0,1.0,0.0,0.0,0.0,0,0,0.0
0,0.24997466140323216,0.0,0.0,0.0,0.0,0.0,1.0,0.0,0.0,0.0,0,0,0.0
0,0.25554491413964164,0.0,0.0,0.0,0.0,0.0,1.0,0.0,0.0,0.0,0,0,0.0
0,0.26108139091067845,0.0,0.0,0.0,0.0,0.0,1.0,0.0,0.0,0.0,0,0,0.0
0,0.2666424380408393,0.0,0.0,0.0,0.0,0.0,1.0,0.0,0.0,0.0,0,0,0.0
0,0.2721969286600749,0.0,0.0,0.0,0.0,0.0,1.0,0.0,0.0,0.0,0,0,0.0
0,0.2778370512856378,0.0,0.0,0.0,0.0,0.0,1.0,0.0,0.0,0.0,0,0,0.0
0,0.28333690431382924,0.0,0.0,0.0,0.0,0.0,1.0,0.0,0.0,0.0,0,0,0.0
0,0.2889106008741591,0.0,0.0,0.0,0.0,0.0,1.0,0.0,0.0,0.0,0,0,0.0
0,0.2944564157062107,0.0,0.0,0.0,0.0,0.0,1.0,0.0,0.0,0.0,0,0,0.0
0,0.29998805787828237,0.0,0.0,0.0,0.0,0.0,1.0,0.0,0.0,0.0,0,0,0.0
0,0.30553870730929905,0.0,0.0,0.0,0.0,0.0,1.0,0.0,0.0,0.0,0,0,0.0
0,0.31146513091193306,0.0,0.0,0.0,0.0,0.0,1.0,0.0,0.0,0.0,0,0,0.0
0,0.3166346417533027,0.0,0.0,0.0,0.0,0.0,1.0,0.0,0.0,0.0,0,0,0.0
0,0.3222093979517619,0.0,0.0,0.0,0.0,0.0,1.0,0.0,0.0,0.0,0,0,0.0
0,0.32778673701816136,0.0,0.0,0.0,0.0,0.0,1.0,0.0,0.0,0.0,0,0,0.0
0,0.3333046038945516,0.0,0.0,0.0,0.0,0.0,1.0,0.0,0.0,0.0,0,0,0.0
0,0.33885982301500106,0.0,0.0,0.0,0.0,0.0,1.0,0.0,0.0,0.0,0,0,0.0
0,0.3444124592675103,0.0,0.0,0.0,0.0,0.0,1.0,0.0,0.0,0.0,0,0,0.0
0,0.3500015868080987,0.0,0.0,0.0,0.0,0.0,1.0,0.0,0.0,0.0,0,0,0.0
0,0.35610589716169566,0.0,0.0,0.0,0.0,0.0,1.0,0.0,0.0,0.0,0,0,0.0
0,0.36112268765767414,0.0,0.0,0.0,0.0,0.0,1.0,0.0,0.0,0.0,0,0,0.0
0,0.36668267514970565,0.0,0.0,0.0,0.0,0.0,1.0,0.0,0.0,0.0,0,0,0.0
0,0.3722327285342746,0.0,0.0,0.0,0.0,0.0,1.0,0.0,0.0,0.0,0,0,0.0
0,0.37774920463562006,0.0,0.0,0.0,0.0,0.0,1.0,0.0,0.0,0.0,0,0,0.0
0,0.3833655516306559,0.0,0.0,0.0,0.0,0.0,1.0,0.0,0.0,0.0,0,0,0.0
0,0.3888807694117228,0.0,0.0,0.0,0.0,0.0,1.0,0.0,0.0,0.0,0,0,0.0
0,0.3945768541759914,0.0,0.0,0.0,0.0,0.0,1.0,0.0,0.0,0.0,0,0,0.0
0,0.39999398920271123,0.0,0.0,0.0,0.0,0.0,1.0,0.0,0.0,0.0,0,0,0.0
0,0.4055422544479369,0.0,0.0,0.0,0.0,0.0,1.0,0.0,0.0,0.0,0,0,0.0
0,0.4113706615236069,0.0,0.0,0.0,0.0,0.0,1.0,0.0,0.0,0.0,0,0,0.0
0,0.4166921642091538,0.0,0.0,0.0,0.0,0.0,1.0,0.0,0.0,0.0,0,0,0.0
0,0.4223787784576415,0.0,0.0,0.0,0.0,0.0,1.0,0.0,0.0,0.0,0,0,0.0
0,0.42774564690060074,0.0,0.0,0.0,0.0,0.0,1.0,0.0,0.0,0.0,0,0,0.0
0,0.4333327876196966,0.0,0.0,0.0,0.0,0.0,1.0,0.0,0.0,0.0,0,0,0.0
0,0.4389423131942748,0.0,0.0,0.0,0.0,0.0,1.0,0.0,0.0,0.0,0,0,0.0
0,0.44441600640614815,0.0,0.0,0.0,0.0,0.0,1.0,0.0,0.0,0.0,0,0,0.0
0,0.4499852657318114,0.0,0.0,0.0,0.0,0.0,1.0,0.0,0.0,0.0,0,0,0.0
0,0.4555361138449774,0.0,0.0,0.0,0.0,0.0,1.0,0.0,0.0,0.0,0,0,0.0
0,0.4611624611748588,0.0,0.0,0.0,0.0,0.0,1.0,0.0,0.0,0.0,0,0,0.0
0,0.46682523356543637,0.0,0.0,0.0,0.0,0.0,1.0,0.0,0.0,0.0,0,0,0.0
0,0.47282053364647747,0.0,0.0,0.0,0.0,0.0,1.0,0.0,0.0,0.0,0,0,0.0
0,0.4777868588765461,0.0,0.0,0.0,0.0,0.0,1.0,0.0,0.0,0.0,0,0,0.0
0,0.4833726088205972,0.0,0.0,0.0,0.0,0.0,1.0,0.0,0.0,0.0,0,0,0.0
0,0.4888661040200126,0.0,0.0,0.0,0.0,0.0,1.0,0.0,0.0,0.0,0,0,0.0
0,0.4945179488923813,0.0,0.0,0.0,0.0,0.0,1.0,0.0,0.0,0.0,0,0,0.0
0,0.5000244908862642,0.0,0.0,0.0,0.0,0.0,1.0,0.0,0.0,0.0,0,0,0.0
0,0.5055721600850421,0.0,0.0,0.0,0.0,0.0,1.0,0.0,0.0,0.0,0,0,0.0
0,0.5111076434453327,0.0,0.0,0.0,0.0,0.0,1.0,0.0,0.0,0.0,0,0,0.0
0,0.5166788233651053,0.0,0.0,0.0,0.0,0.0,1.0,0.0,0.0,0.0,0,0,0.0
0,0.5223241117265487,0.0,0.0,0.0,0.0,0.0,1.0,0.0,0.0,0.0,0,0,0.0
0,0.5303244458304509,0.0,0.0,0.0,0.0,0.0,1.0,0.0,0.0,0.0,0,0,0.0
0,0.5336532990137733,0.0,0.0,0.0,0.0,0.0,1.0,0.0,0.0,0.0,0,0,0.0
0,0.5391032165951196,0.0,0.0,0.0,0.0,0.0,1.0,0.0,0.0,0.0,0,0,0.0
0,0.5445698897043861,0.0,0.0,0.0,0.0,0.0,1.0,0.0,0.0,0.0,0,0,0.0
0,0.550084312756856,0.0,0.0,0.0,0.0,0.0,1.0,0.0,0.0,0.0,0,0,0.0
0,0.5555926428900821,0.0,0.0,0.0,0.0,0.0,1.0,0.0,0.0,0.0,0,0,0.0
0,0.5611101124021739,0.0,0.0,0.0,0.0,0.0,1.0,0.0,0.0,0.0,0,0,0.0
0,0.5667193068398366,0.0,0.0,0.0,0.0,0.0,1.0,0.0,0.0,0.0,0,0,0.0
0,0.5722824070188731,0.0,0.0,0.0,0.0,0.0,1.0,0.0,0.0,0.0,0,0,0.0
0,0.577805439631144,0.0,0.0,0.0,0.0,0.0,1.0,0.0,0.0,0.0,0,0,0.0
0,0.5833915869394936,0.0,0.0,0.0,0.0,0.0,1.0,0.0,0.0,0.0,0,0,0.0
0,0.5889878008100718,0.0,0.0,0.0,0.0,0.0,1.0,0.0,0.0,0.0,0,0,0.0
0,0.5944606330659651,0.0,0.0,0.0,0.0,0.0,1.0,0.0,0.0,0.0,0,0,0.0
0,0.5999837981330021,0.0,0.0,0.0,0.0,0.0,1.0,0.0,0.0,0.0,0,0,0.0
0,0.6055546469158594,0.0,0.0,0.0,0.0,0.0,1.0,0.0,0.0,0.0,0,0,0.0
0,0.6110880109998912,0.0,0.0,0.0,0.0,0.0,1.0,0.0,0.0,0.0,0,0,0.0
0,0.6167552206251353,0.0,0.0,0.0,0.0,0.0,1.0,0.0,0.0,0.0,0,0,0.0
0,0.6222028864754567,0.0,0.0,0.0,0.0,0.0,1.0,0.0,0.0,0.0,0,0,0.0
0,0.6278784407509694,0.0,0.0,0.0,0.0,0.0,1.0,0.0,0.0,0.0,0,0,0.0
0,0.633472469117906,0.0,0.0,0.0,0.0,0.0,1.0,0.0,0.0,0.0,0,0,0.0
0,0.639002852969699,0.0,0.0,0.0,0.0,0.0,1.0,0.0,0.0,0.0,0,0,0.0
0,0.6445578071806162,0.0,0.0,0.0,0.0,0.0,1.0,0.0,0.0,0.0,0,0,0.0
0,0.6501351462470156,0.0,0.0,0.0,0.0,0.0,1.0,0.0,0.0,0.0,0,0,0.0
0,0.6556122832828094,0.0,0.0,0.0,0.0,0.0,1.0,0.0,0.0,0.0,0,0,0.0
0,0.6612365113364321,0.0,0.0,0.0,0.0,0.0,1.0,0.0,0.0,0.0,0,0,0.0
0,0.6667339139514495,0.0,0.0,0.0,0.0,0.0,1.0,0.0,0.0,0.0,0,0,0.0
0,0.6723532411787241,0.0,0.0,0.0,0.0,0.0,1.0,0.0,0.0,0.0,0,0,0.0
0,0.6778184572855628,0.0,0.0,0.0,0.0,0.0,1.0,0.0,0.0,0.0,0,0,0.0
0,0.6835661994086368,0.0,0.0,0.0,0.0,0.0,1.0,0.0,0.0,0.0,0,0,0.0
0,0.6890412833955549,0.0,0.0,0.0,0.0,0.0,1.0,0.0,0.0,0.0,0,0,0.0
0,0.6945023271772593,0.0,0.0,0.0,0.0,0.0,1.0,0.0,0.0,0.0,0,0,0.0
0,0.700042645136515,0.0,0.0,0.0,0.0,0.0,1.0,0.0,0.0,0.0,0,0,0.0
0,0.7057316435707938,0.0,0.0,0.0,0.0,0.0,1.0,0.0,0.0,0.0,0,0,0.0
0,0.7112905051973129,0.0,0.0,0.0,0.0,0.0,1.0,0.0,0.0,0.0,0,0,0.0
0,0.7169026136398313,0.0,0.0,0.0,0.0,0.0,1.0,0.0,0.0,0.0,0,0,0.0
0,0.7223153776592677,0.0,0.0,0.0,0.0,0.0,1.0,0.0,0.0,0.0,0,0,0.0
0,0.7277731762992009,0.0,0.0,0.0,0.0,0.0,1.0,0.0,0.0,0.0,0,0,0.0
0,0.7333609130647445,0.0,0.0,0.0,0.0,0.0,1.0,0.0,0.0,0.0,0,0,0.0
0,0.7389954725901283,0.0,0.0,0.0,0.0,0.0,1.0,0.0,0.0,0.0,0,0,0.0
0,0.7446426153182981,0.0,0.0,0.0,0.0,0.0,1.0,0.0,0.0,0.0,0,0,0.0
0,0.7500239213307697,0.0,0.0,0.0,0.0,0.0,1.0,0.0,0.0,0.0,0,0,0.0
0,0.7556292745802136,0.0,0.0,0.0,0.0,0.0,1.0,0.0,0.0,0.0,0,0,0.0
0,0.7612037658691404,0.0,0.0,0.0,0.0,0.0,1.0,0.0,0.0,0.0,0,0,0.0
0,0.7667719655566743,0.0,0.0,0.0,0.0,0.0,1.0,0.0,0.0,0.0,0,0,0.0
0,0.7723190387090044,0.0,0.0,0.0,0.0,-1.2832755222296715e-05,0.9999999999176602,0.0,0.0,0.0,0,0,0.0
0,0.7778848542089142,-1.4284949588090008e-07,0.0,0.0,0.0,-2.570886952133603e-05,0.999999999669527,0.0,0.0,0.0,0,0,0.0
0,0.783358613640935,-4.2429783021794044e-07,0.0,0.0,0.0,-3.837201872924034e-05,0.9999999992637941,0.0,0.0,0.0,0,0,0.0
0,0.7889176739332329,-8.509225624662538e-07,0.0,0.0,0.0,-6.022285929253332e-05,0.9999999981866036,0.0,0.0,0.0,0,0,0.0
0,0.7945912413460994,-1.5342794701673647e-06,0.0,0.0,0.0,-8.262591290481552e-05,0.9999999965864792,0.0,0.0,0.0,0,0,0.0
0,0.8000817562383081,-2.441597090031265e-06,0.0,0.0,0.0,-0.0001043061523559521,0.9999999945601132,0.0,0.0,0.0,0,0,0.0
0,0.8060450683635608,-3.6856173964986618e-06,0.0,0.0,0.0,-0.00012785331288218217,0.9999999918267651,0.0,0.0,0.0,0,0,0.0
0,0.8113083570073046,-5.031475209014339e-06,0.0,0.0,0.0,-0.00014863631081912435,0.9999999889536235,0.0,0.0,0.0,0,0,0.0
0,0.8168302635100747,-6.6729868859323724e-06,0.0,0.0,0.0,-0.00017044050591040504,0.9999999854750169,0.0,0.0,0.0,0,0,0.0
0,0.8224215762294499,-8.57895930617222e-06,0.0,0.0,0.0,-0.00019251876357895823,0.9999999814682626,0.0,0.0,0.0,0,0,0.0
0,0.8279505026689726,-1.0707803588637636e-05,0.0,0.0,0.0,-0.00021435067857450603,0.999999977026893,0.0,0.0,0.0,0,0,0.0
0,0.8334433350898075,-1.30625884643318e-05,0.0,0.0,0.0,-0.00023604007042649783,0.9999999721425422,0.0,0.0,0.0,0,0,0.0
0,0.8389280876634907,-1.5651831448249202e-05,0.0,0.0,0.0,-0.0003290125654546953,0.9999999458753644,0.0,0.0,0.0,0,0,0.0
0,0.8445468838552392,-1.934914114822432e-05,0.0,0.0,0.0,-0.0004242572520032705,0.999999910002888,0.0,0.0,0.0,0,0,0.0
0,0.8501171345864222,-2.407558096068394e-05,0.0,0.0,0.0,-0.0005424436714782987,0.9999998528774208,0.0,0.0,0.0,0,0,0.0
0,0.8555820825676579,-3.0004436472248422e-05,0.0,0.0,0.0,-0.0006583958560953644,0.9999997832574249,0.0,0.0,0.0,0,0,0.0
0,0.8611412042841122,-3.732464663533896e-05,0.0,0.0,0.0,-0.0007767051580566149,0.9999996983645032,0.0,0.0,0.0,0,0,0.0
0,0.8667714522364579,-4.6070739801185384e-05,0.0,0.0,0.0,-0.0008965281991118565,0.9999995981185134,0.0,0.0,0.0,0,0,0.0
0,0.8722657333322585,-5.592230755113988e-05,0.0,0.0,0.0,-0.0010798423661553596,0.9999994169700621,0.0,0.0,0.0,0,0,0.0
0,0.8778952464478025,-6.80803023425521e-05,0.0,0.0,0.0,-0.0012676685858775453,0.9999991965078554,0.0,0.0,0.0,0,0,0.0
0,0.8834138240888216,-8.207179109720743e-05,0.0,0.0,0.0,-0.0014563102236324,0.999998939579704,0.0,0.0,0.0,0,0,0.0
0,0.889038889238603,-9.845552299060099e-05,0.0,0.0,0.0,-0.0016485920700281007,0.99999864107117,0.0,0.0,0.0,0,0,0.0
0,0.8944652666025716,-0.00011634736131427637,0.0,0.0,0.0,-0.0018340823270100442,0.9999983180695944,0.0,0.0,0.0,0,0,0.0
0,0.9000666747514771,-0.00013689435237471638,0.0,0.0,0.0,-0.002025555855324276,0.9999979485596343,0.0,0.0,0.0,0,0,0.0
0,0.905621186018774,-0.0001593964365017379,0.0,0.0,0.0,-0.00227121926430348,0.9999974207782005,0.0,0.0,0.0,0,0,0.0
0,0.9110932333184489,-0.00018425306731859883,0.0,0.0,0.0,-0.002514665719204381,0.9999968382231619,0.0,0.0,0.0,0,0,0.0
0,0.9166832835710356,-0.00021236754947165408,0.0,0.0,0.0,-0.0028516912053985436,0.999995933920368,0.0,0.0,0.0,0,0,0.0
0,0.9223994747158681,-0.00024496957119163467,0.0,0.0,0.0,-0.003196322667951475,0.9999948917476541,0.0,0.0,0.0,0,0,0.0
0,0.9278789502006601,-0.00027999845140267766,0.0,0.0,0.0,-0.0035268653405675842,0.9999937805910942,0.0,0.0,0.0,0,0,0.0
0,0.9333595271683756,-0.0003186576866244458,0.0,0.0,0.0,-0.0038902042681049067,0.9999924331267475,0.0,0.0,0.0,0,0,0.0
0,0.9390429891559224,-0.0003628783466265,0.0,0.0,0.0,-0.004266995096790966,0.9999908963349836,0.0,0.0,0.0,0,0,0.0
0,0.9445103241236809,-0.00040953780394645316,0.0,0.0,0.0,-0.0046640709361180695,0.9999891231619986,0.0,0.0,0.0,0,0,0.0
0,0.9499980836833238,-0.0004607300741156681,0.0,0.0,0.0,-0.005062632238513997,0.999987184795294,0.0,0.0,0.0,0,0,0.0
0,0.9556661286124236,-0.0005181227345959842,0.0,0.0,0.0,-0.005474289532057716,0.9999850159647989,0.0,0.0,0.0,0,0,0.0
0,0.9611044615688606,-0.000577667429619308,0.0,0.0,0.0,-0.0059416891565686174,0.999982348009187,0.0,0.0,0.0,0,0,0.0
0,0.9666602817906688,-0.0006436928396151969,0.0,0.0,0.0,-0.006419190024252628,0.99997939678747,0.0,0.0,0.0,0,0,0.0
0,0.9722631864339797,-0.000715629505211325,0.0,0.0,0.0,-0.0069007418148337215,0.9999761895977348,0.0,0.0,0.0,0,0,0.0
0,0.9777744354471554,-0.0007916983519783418,0.0,0.0,0.0,-0.007424260175017147,0.9999724398006445,0.0,0.0,0.0,0,0,0.0
0,0.9844486913145161,-0.0008908093706797676,0.0,0.0,0.0,-0.008058260344969887,0.9999675316930109,0.0,0.0,0.0,0,0,0.0
0,0.9891795597611843,-0.0009670619373374962,0.0,0.0,0.0,-0.00850834873506113,0.9999638033458024,0.0,0.0,0.0,0,0,0.0
0,0.9944489731876311,-0.0010567396896816149,0.0,0.0,0.0,-0.009009679006031243,0.999959412018412,0.0,0.0,0.0,0,0,0.0
0,1.0000885112301596,-0.0011583729201230745,0.0,0.0,0.0,-0.009546229725602807,0.9999544337108697,0.0,0.0,0.0,0,0,0.0
0,1.0056392746545495,-0.0012643651349622748,0.0,0.0,0.0,-0.010148256838952879,0.9999485051157038,0.0,0.0,0.0,0,0,0.0
0,1.0111346179538885,-0.0013759186790084491,0.0,0.0,0.0,-0.01074428368569826,0.9999422785181559,0.0,0.0,0.0,0,0,0.0
0,1.0173581573814388,-0.0015096767878803414,0.0,0.0,0.0,-0.01148230581016125,0.9999340761536643,0.0,0.0,0.0,0,0,0.0
0,1.022260670893334,-0.0016222833775123451,0.0,0.0,0.0,-0.012063687984463273,0.999927231068448,0.0,0.0,0.0,0,0,0.0
0,1.0278816067275907,-0.0017579314232910983,0.0,0.0,0.0,-0.01273028007519123,0.9999189667014059,0.0,0.0,0.0,0,0,0.0
0,1.033317973228007,-0.0018963780168361017,0.0,0.0,0.0,-0.013418148000419312,0.999909972599653,0.0,0.0,0.0,0,0,0.0
0,1.0398269061826113,-0.002071100859201563,0.0,0.0,0.0,-0.014241749897480355,0.9998985811370359,0.0,0.0,0.0,0,0,0.0
0,1.0444882832299722,-0.0022039136018925766,0.0,0.0,0.0,-0.014831593970905894,0.9998900058607858,0.0,0.0,0.0,0,0,0.0
0,1.0501099706929466,-0.002370725820774627,0.0,0.0,0.0,-0.015545449522723596,0.9998791621986811,0.0,0.0,0.0,0,0,0.0
0,1.0573263255775618,-0.00259517014932354,0.0,0.0,0.0,-0.016628643140573822,0.9998617345549851,0.0,0.0,0.0,0,0,0.0
0,1.061118460281626,-0.002721338595414648,0.0,0.0,0.0,-0.017242015654217607,0.9998513453989947,0.0,0.0,0.0,0,0,0.0
0,1.0666569402468526,-0.002912412928395887,0.0,0.0,0.0,-0.018137882606152546,0.9998354950763477,0.0,0.0,0.0,0,0,0.0
0,1.0722769382815915,-0.0031163833255222367,0.0,0.0,0.0,-0.019046978142390855,0.9998185898570017,0.0,0.0,0.0,0,0,0.0
0,1.0777158865313388,-0.003323687210288971,0.0,0.0,0.0,-0.019928471693545426,0.9998014082886458,0.0,0.0,0.0,0,0,0.0
0,1.0833576835298524,-0.003548686051450362,0.0,0.0,0.0,-0.0208428875612455,0.9997827634231895,0.0,0.0,0.0,0,0,0.0
0,1.0889349409430475,-0.003781329977068371,0.0,0.0,0.0,-0.021746893253252846,0.9997635083527662,0.0,0.0,0.0,0,0,0.0
0,1.09456046576811,-0.004026179080797515,0.0,0.0,0.0,-0.022741107617109776,0.9997413875719795,0.0,0.0,0.0,0,0,0.0
0,1.0999571120169762,-0.004271821101702624,0.0,0.0,0.0,-0.023748599399241753,0.9997179622406384,0.0,0.0,0.0,0,0,0.0
0,1.105549262594466,-0.0045376575382835085,0.0,0.0,0.0,-0.024792662036154694,0.9996926147117228,0.0,0.0,0.0,0,0,0.0
0,1.111126822765311,-0.004814477964630941,0.0,0.0,0.0,-0.025935331863144544,0.9996636227057323,0.0,0.0,0.0,0,0,0.0
0,1.1165795939622822,-0.005097602567875608,0.0,0.0,0.0,-0.027058081079350794,0.9996338630960354,0.0,0.0,0.0,0,0,0.0
0,1.1222207161289637,-0.005403214177855014,0.0,0.0,0.0,-0.028219715052337863,0.9996017445374757,0.0,0.0,0.0,0,0,0.0
0,1.127812314807428,-0.0057191783741772665,0.0,0.0,0.0,-0.029447446729569185,0.9995663299056793,0.0,0.0,0.0,0,0,0.0
0,1.133274002694031,-0.0060412629963719254,0.0,0.0,0.0,-0.03065097541092317,0.9995301484729507,0.0,0.0,0.0,0,0,0.0
0,1.1388783425071813,-0.006385304981930004,0.0,0.0,0.0,-0.031886071406298344,0.9994915099440678,0.0,0.0,0.0,0,0,0.0
0,1.1444236533526273,-0.006739481714769378,0.0,0.0,0.0,-0.033194946257005725,0.9994488959136403,0.0,0.0,0.0,0,0,0.0
0,1.149946607158192,-0.00710675735721168,0.0,0.0,0.0,-0.03449871009750441,0.9994047423349602,0.0,0.0,0.0,0,0,0.0
0,1.1554954743213932,-0.0074902999324329,0.0,0.0,0.0,-0.03588975108228146,0.9993557553580465,0.0,0.0,0.0,0,0,0.0
0,1.1610870479163802,-0.007892437693707002,0.0,0.0,0.0,-0.03729491163998482,0.9993043027855758,0.0,0.0,0.0,0,0,0.0
0,1.166488849271234,-0.008296199986621273,0.0,0.0,0.0,-0.0387321375348557,0.9992496292328464,0.0,0.0,0.0,0,0,0.0
0,1.1720622638929645,-0.008728914843519725,0.0,0.0,0.0,-0.040215264572515334,0.9991910390387629,0.0,0.0,0.0,0,0,0.0
0,1.1776841433444385,-0.009182185915265878,0.0,0.0,0.0,-0.041728559623221105,0.9991289843217297,0.0,0.0,0.0,0,0,0.0
0,1.1839896701816217,-0.009709806117470883,0.0,0.0,0.0,-0.04342618690093071,0.9990566381798609,0.0,0.0,0.0,0,0,0.0
0,1.188817118883374,-0.010130271825049417,0.0,0.0,0.0,-0.04472616615462247,0.998999284314613,0.0,0.0,0.0,0,0,0.0
0,1.1973147272023814,-0.010892692371110046,0.0,0.0,0.0,-0.0470148205023948,0.9988941919208097,0.0,0.0,0.0,0,0,0.0
0,1.1998597370574404,-0.01113279555217323,0.0,0.0,0.0,-0.04770050767299848,0.9988616829009601,0.0,0.0,0.0,0,0,0.0
0,1.2091443598574239,-0.01202159435199815,0.0,0.0,0.0,-0.05020214283730307,0.9987390774644512,0.0,0.0,0.0,0,0,0.0
0,1.2108501465299961,-0.012193513247282434,0.0,0.0,0.0,-0.05066193996986283,0.9987158594107185,0.0,0.0,0.0,0,0,0.0
0,1.2191822697164327,-0.013041022659731363,0.0,0.0,0.0,-0.05293387818167392,0.9985980194956565,0.0,0.0,0.0,0,0,0.0
0,1.2218365398322595,-0.013323211707742979,0.0,0.0,0.0,-0.053657909402249106,0.9985593766815172,0.0,0.0,0.0,0,0,0.0
0,1.2295553398937005,-0.014155158350835409,0.0,0.0,0.0,-0.05586695990032424,0.9984382218202064,0.0,0.0,0.0,0,0,0.0
0,1.2329466682750485,-0.014535869453156297,0.0,0.0,0.0,-0.056837914013899274,0.9983834190983686,0.0,0.0,0.0,0,0,0.0
0,1.2386571420801225,-0.015188177525151617,0.0,0.0,0.0,-0.05878640897888792,0.9982705836191743,0.0,0.0,0.0,0,0,0.0
0,1.243932590702682,-0.015811663554557907,0.0,0.0,0.0,-0.060587084919307393,0.9981629151300807,0.0,0.0,0.0,0,0,0.0
0,1.2495919849607793,-0.01650123871135109,0.0,0.0,0.0,-0.06253070349365997,0.9980430407154733,0.0,0.0,0.0,0,0,0.0
0,1.254972473752813,-0.017178106616030468,0.0,0.0,0.0,-0.06451338877773412,0.9979168415596626,0.0,0.0,0.0,0,0,0.0
0,1.2606068928500174,-0.017909672640650114,0.0,0.0,0.0,-0.06659042767250234,0.9977803941461233,0.0,0.0,0.0,0,0,0.0
0,1.2660289571479302,-0.018636632081313807,0.0,0.0,0.0,-0.06859001111720177,0.9976449320148638,0.0,0.0,0.0,0,0,0.0
0,1.2714507537737862,-0.019385690679112045,0.0,0.0,0.0,-0.07069549602076368,0.9974979432772673,0.0,0.0,0.0,0,0,0.0
0,1.2770486615150223,-0.020183175469553113,0.0,0.0,0.0,-0.07287032847907889,0.9973414235994368,0.0,0.0,0.0,0,0,0.0
0,1.282478769513171,-0.02098093131473886,0.0,0.0,0.0,-0.0749809696662145,0.997184964882601,0.0,0.0,0.0,0,0,0.0
0,1.2879961456261502,-0.021815381386638136,0.0,0.0,0.0,-0.07726930013016094,0.9970102583511341,0.0,0.0,0.0,0,0,0.0
0,1.2935753318252192,-0.022685392134496375,0.0,0.0,0.0,-0.07958448383815947,0.9968281245692328,0.0,0.0,0.0,0,0,0.0
0,1.29891122597137,-0.023542868980942606,0.0,0.0,0.0,-0.08184811265214544,0.9966448145930835,0.0,0.0,0.0,0,0,0.0
0,1.3045064907783592,-0.02446811628904487,0.0,0.0,0.0,-0.08422307763527062,0.9964469244237965,0.0,0.0,0.0,0,0,0.0
0,1.3099200255446983,-0.025389841967522146,0.0,0.0,0.0,-0.08652228848436178,0.9962499152298226,0.0,0.0,0.0,0,0,0.0
0,1.3154242972337047,-0.02635317770400588,0.0,0.0,0.0,-0.08892491967209804,0.996038331923682,0.0,0.0,0.0,0,0,0.0
0,1.3221804627043419,-0.027569232627113208,0.0,0.0,0.0,-0.09187582293360991,0.9957704721271222,0.0,0.0,0.0,0,0,0.0
0,1.3262749267921086,-0.028331280135819068,0.0,0.0,0.0,-0.09376770303236587,0.9955941029696962,0.0,0.0,0.0,0,0,0.0
0,1.3317717566191498,-0.029375958960469822,0.0,0.0,0.0,-0.09630883937894523,0.9953514994500589,0.0,0.0,0.0,0,0,0.0
0,1.3372283419828885,-0.030441881735619535,0.0,0.0,0.0,-0.09883323236335076,0.9951040107348638,0.0,0.0,0.0,0,0,0.0
0,1.3426826314826994,-0.03153611020971674,0.0,0.0,0.0,-0.10136423873079035,0.9948493811158187,0.0,0.0,0.0,0,0,0.0
0,1.3480871094073539,-0.032648977330035356,0.0,0.0,0.0,-0.10399308944417922,0.9945780197389519,0.0,0.0,0.0,0,0,0.0
0,1.3535970769511345,-0.033813958372582,0.0,0.0,0.0,-0.10667546115732178,0.9942938931658349,0.0,0.0,0.0,0,0,0.0
0,1.3591463719428865,-0.03501856588137571,0.0,0.0,0.0,-0.1093831985142449,0.993999655876597,0.0,0.0,0.0,0,0,0.0
0,1.364424957671473,-0.036194554670936206,0.0,0.0,0.0,-0.1119611787521562,0.9937125814099507,0.0,0.0,0.0,0,0,0.0
0,1.3697680078858336,-0.03741403370975516,0.0,0.0,0.0,-0.11457292846392657,0.9934148398645956,0.0,0.0,0.0,0,0,0.0
0,1.3751913748112357,-0.03868187798777277,0.0,0.0,0.0,-0.11728908782400829,0.9930978148588446,0.0,0.0,0.0,0,0,0.0
0,1.3807239780237353,-0.0400072126495561,0.0,0.0,0.0,-0.12019052768988712,0.9927508433910427,0.0,0.0,0.0,0,0,0.0
0,1.386004090887364,-0.0413047383361816,0.0,0.0,0.0,-0.12296252575989004,0.9924113145559901,0.0,0.0,0.0,0,0,0.0
0,1.3913688439519225,-0.04265488128723342,0.0,0.0,0.0,-0.1258398654659703,0.9920505673903456,0.0,0.0,0.0,0,0,0.0
0,1.3967429272997922,-0.04404056356976382,0.0,0.0,0.0,-0.12872540788675937,0.9916802757766171,0.0,0.0,0.0,0,0,0.0
0,1.4021112264627367,-0.04545811645899904,0.0,0.0,0.0,-0.1316111341647316,0.9913014220527846,0.0,0.0,0.0,0,0,0.0
0,1.4075284672060995,-0.04692237759020964,0.0,0.0,0.0,-0.13453352949464528,0.9909090419618308,0.0,0.0,0.0,0,0,0.0
0,1.4129515319511148,-0.048422585784046505,0.0,0.0,0.0,-0.13746261399054116,0.9905069559346302,0.0,0.0,0.0,0,0,0.0
0,1.4182529023656592,-0.04992293129584958,0.0,0.0,0.0,-0.1405668924056175,0.9900711836829853,0.0,0.0,0.0,0,0,0.0
0,1.4235939330246175,-0.051470733093666315,0.0,0.0,0.0,-0.14369861434757009,0.9896214974598058,0.0,0.0,0.0,0,0,0.0
0,1.4288761102637266,-0.05303777747774571,0.0,0.0,0.0,-0.14680367158571275,0.9891656494283221,0.0,0.0,0.0,0,0,0.0
0,1.4342010104810217,-0.05465392892407523,0.0,0.0,0.0,-0.14999675285118283,0.9886864893049269,0.0,0.0,0.0,0,0,0.0
0,1.4395721592297361,-0.05632207229871089,0.0,0.0,0.0,-0.15322545929112594,0.9881912560962192,0.0,0.0,0.0,0,0,0.0
0,1.444803283181659,-0.057984275181573626,0.0,0.0,0.0,-0.15648109583260067,0.9876809538747968,0.0,0.0,0.0,0,0,0.0
0,1.4500800240343887,-0.0596993430888341,0.0,0.0,0.0,-0.1597703587679809,0.987154209057101,0.0,0.0,0.0,0,0,0.0
0,1.4554483522084316,-0.06148380946599053,0.0,0.0,0.0,-0.1631222237093291,0.9866058686892774,0.0,0.0,0.0,0,0,0.0
0,1.4606225965703756,-0.06324288155292733,0.0,0.0,0.0,-0.16635850662148194,0.9860653362098631,0.0,0.0,0.0,0,0,0.0
0,1.4658924168877148,-0.06507311176402386,0.0,0.0,0.0,-0.16977503892189225,0.9854828441728806,0.0,0.0,0.0,0,0,0.0
0,1.4711386273038685,-0.06693599248997607,0.0,0.0,0.0,-0.17318252130994133,0.9848897472878534,0.0,0.0,0.0,0,0,0.0
0,1.4763774911415934,-0.06883717454746624,0.0,0.0,0.0,-0.17666037315931477,0.9842718692288283,0.0,0.0,0.0,0,0,0.0
0,1.4815874560923332,-0.07076963069978548,0.0,0.0,0.0,-0.18012582244576456,0.983643577770036,0.0,0.0,0.0,0,0,0.0
0,1.4866876886322395,-0.07270236119611526,0.0,0.0,0.0,-0.1835253873482029,0.9830149704855425,0.0,0.0,0.0,0,0,0.0
0,1.4919470101871768,-0.07473707543086651,0.0,0.0,0.0,-0.18708130325010597,0.982344433472416,0.0,0.0,0.0,0,0,0.0
0,1.4970284357406107,-0.07674536458219737,0.0,0.0,0.0,-0.19052434135286317,0.9816824717555355,0.0,0.0,0.0,0,0,0.0
0,1.5023199573896378,-0.07887970919238259,0.0,0.0,0.0,-0.19424552769216236,0.9809529422819391,0.0,0.0,0.0,0,0,0.0
0,1.5073524867787795,-0.0809541022833054,0.0,0.0,0.0,-0.19779294047787935,0.9802438230854169,0.0,0.0,0.0,0,0,0.0
0,1.5125436113853763,-0.08313794029968771,0.0,0.0,0.0,-0.20146046325148054,0.979496647133873,0.0,0.0,0.0,0,0,0.0
0,1.517712097089483,-0.08535793622139527,0.0,0.0,0.0,-0.20512081282892694,0.9787366612855576,0.0,0.0,0.0,0,0,0.0
0,1.522821685131596,-0.08759803252293025,0.0,0.0,0.0,-0.2087483796271856,0.977969382957884,0.0,0.0,0.0,0,0,0.0
0,1.5278784290967011,-0.08985981458457545,0.0,0.0,0.0,-0.21234739923508072,0.9771942396668624,0.0,0.0,0.0,0,0,0.0
0,1.5328381832608275,-0.09212218579285432,0.0,0.0,0.0,-0.2158863392783633,0.976418500701921,0.0,0.0,0.0,0,0,0.0
0,1.5378534792698098,-0.09445394036511888,0.0,0.0,0.0,-0.21947397556231507,0.9756183547119602,0.0,0.0,0.0,0,0,0.0
0,1.5428248658569075,-0.09680988097000223,0.0,0.0,0.0,-0.22303887832216482,0.9748095499926078,0.0,0.0,0.0,0,0,0.0
0,1.5479910286642935,-0.09930453994721612,0.0,0.0,0.0,-0.22677796804179723,0.973946483750947,0.0,0.0,0.0,0,0,0.0
0,1.5528651170579946,-0.10170446363486062,0.0,0.0,0.0,-0.2304255440649114,0.9730899591725266,0.0,0.0,0.0,0,0,0.0
0,1.5578736291512076,-0.10421737997952393,0.0,0.0,0.0,-0.23418431492575414,0.9721922169215074,0.0,0.0,0.0,0,0,0.0
0,1.5636322759333494,-0.10716259148496618,0.0,0.0,0.0,-0.23851864653631777,0.9711379177307841,0.0,0.0,0.0,0,0,0.0
0,1.5678299191773246,-0.10935690331096318,0.0,0.0,0.0,-0.241687247852224,0.9703542003957203,0.0,0.0,0.0,0,0,0.0
0,1.5726591155389145,-0.11192163738633597,0.0,0.0,0.0,-0.24545496346456178,0.9694079950725653,0.0,0.0,0.0,0,0,0.0
0,1.5803076175454496,-0.11606017698312188,0.0,0.0,0.0,-0.2514819849213107,0.9678619794475024,0.0,0.0,0.0,0,0,0.0
0,1.582508829881201,-0.11728688883355264,0.0,0.0,0.0,-0.2532266263901633,0.967406985547994,0.0,0.0,0.0,0,0,0.0
0,1.5871897204948469,-0.11991766469952946,0.0,0.0,0.0,-0.25693916420450963,0.9664275792307916,0.0,0.0,0.0,0,0,0.0
0,1.592068419330125,-0.12270912624065312,0.0,0.0,0.0,-0.2608214172442284,0.9653870665731503,0.0,0.0,0.0,0,0,0.0
0,1.5968383530108683,-0.12548948783555341,0.0,0.0,0.0,-0.2646306805485195,0.9643498342989578,0.0,0.0,0.0,0,0,0.0
0,1.601623203313444,-0.12832939664622026,0.0,0.0,0.0,-0.2684849136189247,0.9632838891827469,0.0,0.0,0.0,0,0,0.0
0,1.6063686939489836,-0.13119751408882688,0.0,0.0,0.0,-0.27232152598217535,0.962206311809863,0.0,0.0,0.0,0,0,0.0
0,1.6111051067546025,-0.13411193490945442,0.0,0.0,0.0,-0.27616511297609225,0.961110207195253,0.0,0.0,0.0,0,0,0.0
0,1.615786248491033,-0.13704418954338277,0.0,0.0,0.0,-0.2799711082407585,0.9600084262913745,0.0,0.0,0.0,0,0,0.0
0,1.620531180907673,-0.14006901991390225,0.0,0.0,0.0,-0.2838501591976225,0.9588686495675434,0.0,0.0,0.0,0,0,0.0
0,1.6251832219016362,-0.14308781232482085,0.0,0.0,0.0,-0.2876685618307313,0.9577300238241666,0.0,0.0,0.0,0,0,0.0
0,1.6297648556873723,-0.1461130734314095,0.0,0.0,0.0,-0.2914443440585302,0.9565877870411544,0.0,0.0,0.0,0,0,0.0
0,1.6344131907322381,-0.1492353171613683,0.0,0.0,0.0,-0.29528355143415785,0.955409663051631,0.0,0.0,0.0,0,0,0.0
0,1.639056475139366,-0.15240858303200083,0.0,0.0,0.0,-0.29903567658448127,0.9542419316555217,0.0,0.0,0.0,0,0,0.0
0,1.6435034248562448,-0.15549922288819992,0.0,0.0,0.0,-0.3026443022137455,0.9531035758707209,0.0,0.0,0.0,0,0,0.0
0,1.6480346159786856,-0.15869953558546152,0.0,0.0,0.0,-0.30632083027799994,0.9519283318285031,0.0,0.0,0.0,0,0,0.0
0,1.6525593663840255,-0.16194794072287247,0.0,0.0,0.0,-0.3099950098111091,0.9507381836721456,0.0,0.0,0.0,0,0,0.0
0,1.6571216447131514,-0.16527699009377478,0.0,0.0,0.0,-0.313715711239646,0.9495169574691139,0.0,0.0,0.0,0,0,0.0
0,1.661574146427806,-0.1685796842813004,0.0,0.0,0.0,-0.31735670156369045,0.9483062395516623,0.0,0.0,0.0,0,0,0.0
0,1.665971132417795,-0.17189380763069884,0.0,0.0,0.0,-0.3209530762640878,0.9470950970396894,0.0,0.0,0.0,0,0,0.0
0,1.6704271295997166,-0.1753057479883048,0.0,0.0,0.0,-0.32461403568353103,0.945846566752373,0.0,0.0,0.0,0,0,0.0
0,1.674785772968221,-0.17869695206461186,0.0,0.0,0.0,-0.3282117168761141,0.9446041863686787,0.0,0.0,0.0,0,0,0.0
0,1.6791441431156133,-0.1821415230298448,0.0,0.0,0.0,-0.3317969205533228,0.9433508379766946,0.0,0.0,0.0,0,0,0.0
0,1.6834884113659414,-0.185628884429335,0.0,0.0,0.0,-0.3353874049425398,0.9420802983853918,0.0,0.0,0.0,0,0,0.0
0,1.6880321930979376,-0.18933367182567054,0.0,0.0,0.0,-0.33920136702326725,0.9407137888909394,0.0,0.0,0.0,0,0,0.0
0,1.6920746828685904,-0.1926846241342308,0.0,0.0,0.0,-0.3426125092435937,0.9394768057327485,0.0,0.0,0.0,0,0,0.0
0,1.6963375807139252,-0.19627078954707786,0.0,0.0,0.0,-0.34622656957713543,0.93815092736662,0.0,0.0,0.0,0,0,0.0
0,1.7005651390980963,-0.19988317275847167,0.0,0.0,0.0,-0.3498223811946252,0.9368160447042537,0.0,0.0,0.0,0,0,0.0
0,1.7047381023808224,-0.20350465650347,0.0,0.0,0.0,-0.3533901837852575,0.935476016797984,0.0,0.0,0.0,0,0,0.0
0,1.7089527020351272,-0.20721897035764605,0.0,0.0,0.0,-0.3569785474204242,0.9341125824447521,0.0,0.0,0.0,0,0,0.0
0,1.713033846229715,-0.21087171818679146,0.0,0.0,0.0,-0.3604719953495894,0.9327700362729742,0.0,0.0,0.0,0,0,0.0
0,1.7172724243427406,-0.21472290187642654,0.0,0.0,0.0,-0.36394610580895725,0.9314200084100058,0.0,0.0,0.0,0,0,0.0
0,1.7212946990117253,-0.21843266289763857,0.0,0.0,0.0,-0.36726077722642014,0.9301180148298633,0.0,0.0,0.0,0,0,0.0
0,1.7252666069959,-0.22214867166674865,0.0,0.0,0.0,-0.37055105422009504,0.9288120995208752,0.0,0.0,0.0,0,0,0.0
0,1.7292863768352669,-0.2259631858036227,0.0,0.0,0.0,-0.37384492407620445,0.9274912251565817,0.0,0.0,0.0,0,0,0.0
0,1.7333784105158676,-0.22990184674596764,0.0,0.0,0.0,-0.3772159446542365,0.9261253322842498,0.0,0.0,0.0,0,0,0.0
0,1.7373099677222377,-0.23374153170376855,0.0,0.0,0.0,-0.38043628355067016,0.924807133492251,0.0,0.0,0.0,0,0,0.0
0,1.7412512713754449,-0.23764469409028388,0.0,0.0,0.0,-0.3836821056687077,0.9234652358316617,0.0,0.0,0.0,0,0,0.0
0,1.7451994989419164,-0.24161003395807928,0.0,0.0,0.0,-0.38694326355188496,0.9221035249861137,0.0,0.0,0.0,0,0,0.0
0,1.749111759948167,-0.2455951939563573,0.0,0.0,0.0,-0.3901930804036265,0.9207330557795398,0.0,0.0,0.0,0,0,0.0
0,1.7529289781871704,-0.24953880386917326,0.0,0.0,0.0,-0.3933822472178212,0.9193750092175972,0.0,0.0,0.0,0,0,0.0
0,1.7567888240706553,-0.25358217136808797,0.0,0.0,0.0,-0.396640988278381,0.9179738157581344,0.0,0.0,0.0,0,0,0.0
0,1.760595831453402,-0.2576272596897838,0.0,0.0,0.0,-0.39972524729776554,0.9166350018806505,0.0,0.0,0.0,0,0,0.0
0,1.7643682059455212,-0.26168994632065634,0.0,0.0,0.0,-0.40279900672898217,0.9152884573609269,0.0,0.0,0.0,0,0,0.0
0,1.7680991366474097,-0.26576247728498836,0.0,0.0,0.0,-0.4058470708232774,0.9139410019821661,0.0,0.0,0.0,0,0,0.0
0,1.7718336167850637,-0.2698938323354051,0.0,0.0,0.0,-0.40886973213973177,0.9125927581018731,0.0,0.0,0.0,0,0,0.0
0,1.7755844878642222,-0.27409894338311824,0.0,0.0,0.0,-0.4119235646144876,0.9112184024235321,0.0,0.0,0.0,0,0,0.0
0,1.779231900258447,-0.2782436182135876,0.0,0.0,0.0,-0.41491121845227885,0.9098619020502207,0.0,0.0,0.0,0,0,0.0
0,1.7828408751608291,-0.2823992884656683,0.0,0.0,0.0,-0.4179378267587968,0.9084756314641212,0.0,0.0,0.0,0,0,0.0
0,1.7866545361352353,-0.2868501659298853,0.0,0.0,0.0,-0.42115577943853405,0.9069883182519612,0.0,0.0,0.0,0,0,0.0
0,1.790075060964391,-0.2908999829958402,0.0,0.0,0.0,-0.42390296435538555,0.9057076111034492,0.0,0.0,0.0,0,0,0.0
0,1.7936215005040996,-0.2951508897830076,0.0,0.0,0.0,-0.42676776380844866,0.904361252914971,0.0,0.0,0.0,0,0,0.0
0,1.797195860208068,-0.29949082510300395,0.0,0.0,0.0,-0.42967287661992676,0.9029846173092636,0.0,0.0,0.0,0,0,0.0
0,1.8006713522969218,-0.30376644183661194,0.0,0.0,0.0,-0.43251560984105647,0.9016264455104558,0.0,0.0,0.0,0,0,0.0
0,1.80414474565621,-0.30809491624329405,0.0,0.0,0.0,-0.43537453845755086,0.9002494161413683,0.0,0.0,0.0,0,0,0.0
0,1.8076244815975802,-0.3124881254324796,0.0,0.0,0.0,-0.4382571300159255,0.8988496470434887,0.0,0.0,0.0,0,0,0.0
0,1.8110382217017145,-0.3168552293316746,0.0,0.0,0.0,-0.4411037517587056,0.897456116021499,0.0,0.0,0.0,0,0,0.0
0,1.8143853739650402,-0.3211935468349926,0.0,0.0,0.0,-0.4439133679881391,0.8960697080704307,0.0,0.0,0.0,0,0,0.0
0,1.817750417973057,-0.32561202614284784,0.0,0.0,0.0,-0.44667731680667155,0.8946951294437633,0.0,0.0,0.0,0,0,0.0
0,1.8211070242737144,-0.33007633990797375,0.0,0.0,0.0,-0.4494526282020075,0.8933041671246743,0.0,0.0,0.0,0,0,0.0
0,1.824405140205392,-0.33452003353287,0.0,0.0,0.0,-0.45209247183596907,0.8919710740316883,0.0,0.0,0.0,0,0,0.0
0,1.827680165374749,-0.3389875899464053,0.0,0.0,0.0,-0.45473097779165905,0.8906288440403453,0.0,0.0,0.0,0,0,0.0
0,1.8309529567667946,-0.3435079853022386,0.0,0.0,0.0,-0.4573851697385192,0.8892686919616961,0.0,0.0,0.0,0,0,0.0
0,1.8341393710174319,-0.3479648012293665,0.0,0.0,0.0,-0.4599176266734995,0.8879615851347487,0.0,0.0,0.0,0,0,0.0
0,1.8373898949981213,-0.35256650073421775,0.0,0.0,0.0,-0.4624506480201244,0.8866450237528923,0.0,0.0,0.0,0,0,0.0
0,1.8405990842274766,-0.3571651770255787,0.0,0.0,0.0,-0.46496813572801277,0.8853274155687354,0.0,0.0,0.0,0,0,0.0
0,1.8437387828040306,-0.36171920380751477,0.0,0.0,0.0,-0.4674467763704445,0.8840212165219111,0.0,0.0,0.0,0,0,0.0
0,1.8468714071426464,-0.3663179007143128,0.0,0.0,0.0,-0.4699364343963752,0.8827002592198675,0.0,0.0,0.0,0,0,0.0
0,1.8499319508746033,-0.3708656672745237,0.0,0.0,0.0,-0.47221126721162426,0.8814854049378197,0.0,0.0,0.0,0,0,0.0
0,1.8530271912693108,-0.37551660139697085,0.0,0.0,0.0,-0.4745264572883516,0.8802412404184243,0.0,0.0,0.0,0,0,0.0
0,1.856057607515084,-0.3801224404644961,0.0,0.0,0.0,-0.47673760237866697,0.8790456521013229,0.0,0.0,0.0,0,0,0.0
0,1.8591030487105886,-0.3848021841180553,0.0,0.0,0.0,-0.4789737785659325,0.8778292085857436,0.0,0.0,0.0,0,0,0.0
0,1.8621750518651072,-0.38957573019442054,0.0,0.0,0.0,-0.48124388328146117,0.8765867468791547,0.0,0.0,0.0,0,0,0.0
0,1.8651478626156612,-0.39424810718270714,0.0,0.0,0.0,-0.4833194935640748,0.8754440399825487,0.0,0.0,0.0,0,0,0.0
0,1.8680391473682152,-0.39884025280519864,0.0,0.0,0.0,-0.48535072141902885,0.8743195509755162,0.0,0.0,0.0,0,0,0.0
0,1.87096518877723,-0.4035358186033739,0.0,0.0,0.0,-0.4874189690420083,0.8731682246955771,0.0,0.0,0.0,0,0,0.0
0,1.8738999728069943,-0.4082954685896112,0.0,0.0,0.0,-0.48954863942613575,0.8719759914332615,0.0,0.0,0.0,0,0,0.0
0,1.8768004191776775,-0.41305123770273205,0.0,0.0,0.0,-0.491667313492672,0.8707831261817712,0.0,0.0,0.0,0,0,0.0
0,1.879706097788973,-0.4178681229652968,0.0,0.0,0.0,-0.4938070266023401,0.8695715154477841,0.0,0.0,0.0,0,0,0.0
0,1.8825009230981764,-0.42255318174467627,0.0,0.0,0.0,-0.4956231942753676,0.8685376499014198,0.0,0.0,0.0,0,0,0.0
0,1.8853124946629929,-0.4273114027658209,0.0,0.0,0.0,-0.4974609445345628,0.8674863737620209,0.0,0.0,0.0,0,0,0.0
0,1.8881577126095574,-0.4321734561865443,0.0,0.0,0.0,-0.4993318327883544,0.8664108267815118,0.0,0.0,0.0,0,0,0.0
0,1.8909340750830326,-0.43696517006522684,0.0,0.0,0.0,-0.5011687601339379,0.8653495674383916,0.0,0.0,0.0,0,0,0.0
0,1.8937128892299981,-0.44180837174856286,0.0,0.0,0.0,-0.5030264788434118,0.8642710000818022,0.0,0.0,0.0,0,0,0.0
0,1.8964489534430455,-0.4466248852998906,0.0,0.0,0.0,-0.5048671413064038,0.8631970630331754,0.0,0.0,0.0,0,0,0.0
0,1.899145569248856,-0.45141942122536105,0.0,0.0,0.0,-0.5066927271238955,0.86212671938628,0.0,0.0,0.0,0,0,0.0
0,1.901865753722076,-0.456304133670957,0.0,0.0,0.0,-0.5083911187139725,0.8611262801777423,0.0,0.0,0.0,0,0,0.0
0,1.9045671080518967,-0.4612003437096055,0.0,0.0,0.0,-0.5100878161533463,0.8601223283998096,0.0,0.0,0.0,0,0,0.0
0,1.9072288704959952,-0.46607009090194385,0.0,0.0,0.0,-0.5117729069990186,0.8591207666339895,0.0,0.0,0.0,0,0,0.0
0,1.9098789314437066,-0.4709639218862789,0.0,0.0,0.0,-0.5134607485968252,0.8581130809225482,0.0,0.0,0.0,0,0,0.0
0,1.91249940046642,-0.4758488748472501,0.0,0.0,0.0,-0.5151735938631511,0.8570858581181497,0.0,0.0,0.0,0,0,0.0
0,1.915120844074053,-0.4807828564875664,0.0,0.0,0.0,-0.5168978655234037,0.8560470761689156,0.0,0.0,0.0,0,0,0.0
0,1.917724715073227,-0.48573174779396766,0.0,0.0,0.0,-0.5185447779954121,0.8550504740737174,0.0,0.0,0.0,0,0,0.0
0,1.9202295864186327,-0.49053728823616993,0.0,0.0,0.0,-0.5201464586130184,0.8540770817627268,0.0,0.0,0.0,0,0,0.0
0,1.9227918884184731,-0.49549829014061686,0.0,0.0,0.0,-0.5216198346637884,0.8531780283653125,0.0,0.0,0.0,0,0,0.0
0,1.9253312233290107,-0.5004567308606,0.0,0.0,0.0,-0.523088289264806,0.8522785000421039,0.0,0.0,0.0,0,0,0.0
0,1.9280938248886585,-0.5058972373564927,0.0,0.0,0.0,-0.5246949013139965,0.8512903503124509,0.0,0.0,0.0,0,0,0.0
0,1.9303485610794118,-0.5103793872707473,0.0,0.0,0.0,-0.5260145858405703,0.8504755466696108,0.0,0.0,0.0,0,0,0.0
0,1.9337471664171249,-0.5171879398607557,0.0,0.0,0.0,-0.5276275142348272,0.84947584204754,0.0,0.0,0.0,0,0,0.0
0,1.9352883853048133,-0.520305070412547,0.0,0.0,0.0,-0.5283639312308298,0.8490179952005157,0.0,0.0,0.0,0,0,0.0
0,1.937775031888827,-0.5253563684155916,0.0,0.0,0.0,-0.5295554288666346,0.8482753372330676,0.0,0.0,0.0,0,0,0.0
0,1.940177016002192,-0.5302704608527993,0.0,0.0,0.0,-0.5306520922447848,0.8475897338903017,0.0,0.0,0.0,0,0,0.0
0,1.9426053932467942,-0.535271295231669,0.0,0.0,0.0,-0.5317657984662532,0.8468914544270406,0.0,0.0,0.0,0,0,0.0
0,1.9450275489964146,-0.5402928723975561,0.0,0.0,0.0,-0.5328817793518188,0.8461897005015125,0.0,0.0,0.0,0,0,0.0
0,1.9474126774406813,-0.5452711856575555,0.0,0.0,0.0,-0.5337017726496658,0.8456727605111829,0.0,0.0,0.0,0,0,0.0
0,1.949991207498175,-0.5506800584733862,0.0,0.0,0.0,-0.5345912920420828,0.8451107326692618,0.0,0.0,0.0,0,0,0.0
0,1.9521741449624617,-0.5552840306538787,0.0,0.0,0.0,-0.5350194659825469,0.8448397309666197,0.0,0.0,0.0,0,0,0.0
0,1.9545476318403743,-0.5603030185717033,0.0,0.0,0.0,-0.5354858564446158,0.8445441951418389,0.0,0.0,0.0,0,0,0.0
0,1.9569230037408245,-0.5653403785400167,0.0,0.0,0.0,-0.5358652986088942,0.8443034891239054,0.0,0.0,0.0,0,0,0.0
0,1.9593109324298743,-0.5704161869233038,0.0,0.0,0.0,-0.536247365745295,0.8440608761998342,0.0,0.0,0.0,0,0,0.0
0,1.9617159323020075,-0.5755403180685524,0.0,0.0,0.0,-0.5366327948737207,0.8438158824447541,0.0,0.0,0.0,0,0,0.0
0,1.9640997655966013,-0.5806314366890504,0.0,0.0,0.0,-0.537015466131858,0.8435723970917868,0.0,0.0,0.0,0,0,0.0
0,1.9664171468793188,-0.5855923478974909,0.0,0.0,0.0,-0.5373880860500886,0.8433350727744119,0.0,0.0,0.0,0,0,0.0
0,1.9687596310355435,-0.5906185744993359,0.0,0.0,0.0,-0.5377653493828564,0.8430945551971821,0.0,0.0,0.0,0,0,0.0
0,1.9711639886549088,-0.5957896418261214,0.0,0.0,0.0,-0.5381532103910767,0.8428470336578148,0.0,0.0,0.0,0,0,0.0
0,1.973961169583746,-0.6018200658007203,0.0,0.0,0.0,-0.5386051912203738,0.8425582757236822,0.0,0.0,0.0,0,0,0.0
0,1.9757796424360905,-0.6057515421183289,0.0,0.0,0.0,-0.5388996259922273,0.8423699858764185,0.0,0.0,0.0,0,0,0.0
0,1.978113217188427,-0.6108059204000857,0.0,0.0,0.0,-0.5388923386513769,0.8423746478514472,0.0,0.0,0.0,0,0,0.0
0,1.9803888293354994,-0.6157345311993377,0.0,0.0,0.0,-0.5388852325449421,0.8423791937987213,0.0,0.0,0.0,0,0,0.0
0,1.9827201614419723,-0.6207835986589946,0.0,0.0,0.0,-0.5388779526667536,0.8423838508243662,0.0,0.0,0.0,0,0,0.0
0,1.985019541256548,-0.6257632395042737,0.0,0.0,0.0,-0.538315840180283,0.8427431733398948,0.0,0.0,0.0,0,0,0.0
0,1.9874078426827786,-0.6309173729218299,0.0,0.0,0.0,-0.5375234627790096,0.8432487930391971,0.0,0.0,0.0,0,0,0.0
0,1.9897507817817268,-0.6359487941156653,0.0,0.0,0.0,-0.5367488162486069,0.8437420863366477,0.0,0.0,0.0,0,0,0.0
0,1.9920988044480419,-0.6409670255266334,0.0,0.0,0.0,-0.5359750862432344,0.8442337987350171,0.0,0.0,0.0,0,0,0.0
0,1.9944789885521534,-0.6460297897803662,0.0,0.0,0.0,-0.5349130724413463,0.8449070984027528,0.0,0.0,0.0,0,0,0.0
0,1.9968090097668525,-0.650953655804024,0.0,0.0,0.0,-0.5338781565446686,0.8455614193921493,0.0,0.0,0.0,0,0,0.0
0,1.9991916860912093,-0.6559570669663504,0.0,0.0,0.0,-0.5328244770393578,0.8462257835044587,0.0,0.0,0.0,0,0,0.0
0,2.001598183330725,-0.6609782365258082,0.0,0.0,0.0,-0.5315126542722061,0.8470503517197276,0.0,0.0,0.0,0,0,0.0
0,2.00403339441011,-0.6660191770156191,0.0,0.0,0.0,-0.5301924144626375,0.8478773517710441,0.0,0.0,0.0,0,0,0.0
0,2.0064563498744614,-0.6709951056545141,0.0,0.0,0.0,-0.5287555013452865,0.8487741865756138,0.0,0.0,0.0,0,0,0.0
0,2.008942802269535,-0.6760577906082975,0.0,0.0,0.0,-0.527289550577202,0.8496856653210599,0.0,0.0,0.0,0,0,0.0
0,2.0113962378217116,-0.6810099678895469,0.0,0.0,0.0,-0.5256582436658284,0.8506958392199626,0.0,0.0,0.0,0,0,0.0
0,2.0138607189899362,-0.685936819880973,0.0,0.0,0.0,-0.5238534400381297,0.8518084135298369,0.0,0.0,0.0,0,0,0.0
0,2.0163761873653043,-0.6909127545173405,0.0,0.0,0.0,-0.5220243677892961,0.8529305712859552,0.0,0.0,0.0,0,0,0.0
0,2.0188890930549905,-0.6958310800237835,0.0,0.0,0.0,-0.520210154131231,0.8540382869279111,0.0,0.0,0.0,0,0,0.0
0,2.0224923548947134,-0.7028100896525067,0.0,0.0,0.0,-0.5173787449265101,0.8557565274645991,0.0,0.0,0.0,0,0,0.0
0,2.0240563618858936,-0.7057907488729666,0.0,0.0,0.0,-0.5161635652073385,0.8564900314378735,0.0,0.0,0.0,0,0,0.0
0,2.0266132139452746,-0.7106301160817573,0.0,0.0,0.0,-0.514006185956736,0.857786477392952,0.0,0.0,0.0,0,0,0.0
0,2.0292222538508384,-0.7155086441423311,0.0,0.0,0.0,-0.5118222123865551,0.8590913938037862,0.0,0.0,0.0,0,0,0.0
0,2.031907538774684,-0.7204688823951192,0.0,0.0,0.0,-0.5095921612331625,0.8604160791208603,0.0,0.0,0.0,0,0,0.0
0,2.0351923682734947,-0.7264621229651558,0.0,0.0,0.0,-0.5066028150049738,0.8621795566058361,0.0,0.0,0.0,0,0,0.0
0,2.0374311673151704,-0.7304804259356117,0.0,0.0,0.0,-0.5045254956291195,0.8633967942146829,0.0,0.0,0.0,0,0,0.0
0,2.0399600786510463,-0.7349684687970297,0.0,0.0,0.0,-0.5021955977679988,0.8647540584365258,0.0,0.0,0.0,0,0,0.0
0,2.042699061392544,-0.7397686124798151,0.0,0.0,0.0,-0.4996919865552937,0.8662031624119276,0.0,0.0,0.0,0,0,0.0
0,2.045492889691105,-0.744599726337617,0.0,0.0,0.0,-0.49708484867888425,0.8677019380028437,0.0,0.0,0.0,0,0,0.0
0,2.0483757200939934,-0.7495162703630334,0.0,0.0,0.0,-0.4944176594846002,0.8692244692769353,0.0,0.0,0.0,0,0,0.0
0,2.0511836276778346,-0.7542383231808627,0.0,0.0,0.0,-0.4917689976187855,0.8707257047894101,0.0,0.0,0.0,0,0,0.0
0,2.054163820443369,-0.7591813440394565,0.0,0.0,0.0,-0.4889813549316013,0.8722942362123318,0.0,0.0,0.0,0,0,0.0
0,2.0569620110598095,-0.763756049343181,0.0,0.0,0.0,-0.4863868994331539,0.873743545933132,0.0,0.0,0.0,0,0,0.0
0,2.0598508115083702,-0.7684164345381919,0.0,0.0,0.0,-0.4837297200890297,0.875217434642723,0.0,0.0,0.0,0,0,0.0
0,2.062857233000829,-0.7732013898710139,0.0,0.0,0.0,-0.48078298403549435,0.8768396217450062,0.0,0.0,0.0,0,0,0.0
0,2.0660822317291214,-0.7782583839018979,0.0,0.0,0.0,-0.4776494766487924,0.8785504979550889,0.0,0.0,0.0,0,0,0.0
0,2.0687784355821504,-0.7824203435150882,0.0,0.0,0.0,-0.47494784733070416,0.8800139443872069,0.0,0.0,0.0,0,0,0.0
0,2.0718334100697047,-0.7870732049232368,0.0,0.0,0.0,-0.47191009318939664,0.8816466774995383,0.0,0.0,0.0,0,0,0.0
0,2.075138138992638,-0.7920315695436303,0.0,0.0,0.0,-0.4686518580959706,0.8833829497467076,0.0,0.0,0.0,0,0,0.0
0,2.0781121917264493,-0.7964231773558703,0.0,0.0,0.0,-0.46563708412025284,0.884975765708863,0.0,0.0,0.0,0,0,0.0
0,2.0812031060071328,-0.8009209768685168,0.0,0.0,0.0,-0.46252936271915435,0.8866039637981622,0.0,0.0,0.0,0,0,0.0
0,2.085530926893546,-0.8071249672862209,0.0,0.0,0.0,-0.45809215157266,0.8889047084291607,0.0,0.0,0.0,0,0,0.0
0,2.08791947319328,-0.8104770658580859,0.0,0.0,0.0,-0.45567289523962096,0.890147298228749,0.0,0.0,0.0,0,0,0.0
0,2.0908753734975565,-0.814578007759089,0.0,0.0,0.0,-0.45269701804793144,0.8916644042746749,0.0,0.0,0.0,0,0,0.0
0,2.0945620949783246,-0.8196214969243121,0.0,0.0,0.0,-0.44895613481174923,0.8935537974934102,0.0,0.0,0.0,0,0,0.0
0,2.097414154682711,-0.8234552888728748,0.0,0.0,0.0,-0.4460895575389045,0.894988327663967,0.0,0.0,0.0,0,0,0.0
0,2.1007225597342494,-0.827843481494011,0.0,0.0,0.0,-0.4427678827275654,0.8966362707502685,0.0,0.0,0.0,0,0,0.0
0,2.1041129367541744,-0.8322716978182164,0.0,0.0,0.0,-0.43939074831175284,0.8982960371158485,0.0,0.0,0.0,0,0,0.0
0,2.1075419103328192,-0.8366811742608354,0.0,0.0,0.0,-0.4359591003350363,0.8999664787285501,0.0,0.0,0.0,0,0,0.0
0,2.111007890745273,-0.841068713655475,0.0,0.0,0.0,-0.4325176747580729,0.9016254549544782,0.0,0.0,0.0,0,0,0.0
0,2.114437121235823,-0.8453421932653303,0.0,0.0,0.0,-0.4291391349222212,0.9032383975884813,0.0,0.0,0.0,0,0,0.0
0,2.1180480627150864,-0.8497737302498442,0.0,0.0,0.0,-0.425596901825495,0.9049128561118689,0.0,0.0,0.0,0,0,0.0
0,2.1215855384686484,-0.8540462958017406,0.0,0.0,0.0,-0.42215343982816234,0.9065243919725768,0.0,0.0,0.0,0,0,0.0
0,2.1251079183599386,-0.8582353717649832,0.0,0.0,0.0,-0.4187497967096268,0.9081016505632209,0.0,0.0,0.0,0,0,0.0
0,2.1287459105715643,-0.8624966245146335,0.0,0.0,0.0,-0.41525932645015534,0.9097030789197997,0.0,0.0,0.0,0,0,0.0
0,2.1324179125897875,-0.8667314109881615,0.0,0.0,0.0,-0.4117614082548336,0.9112916891270304,0.0,0.0,0.0,0,0,0.0
0,2.1359997003974556,-0.870798594853641,0.0,0.0,0.0,-0.4083735172473502,0.9128149157474521,0.0,0.0,0.0,0,0,0.0
0,2.139705045012165,-0.8749435841757741,0.0,0.0,0.0,-0.4048162415919113,0.91439805913147,0.0,0.0,0.0,0,0,0.0
0,2.1434716276362282,-0.8790916099307995,0.0,0.0,0.0,-0.40122508666304374,0.9159794920369304,0.0,0.0,0.0,0,0,0.0
0,2.147205580409619,-0.8831394126934753,0.0,0.0,0.0,-0.3976479615159426,0.9175380638982862,0.0,0.0,0.0,0,0,0.0
0,2.1510979814447353,-0.8872934624138525,0.0,0.0,0.0,-0.3938133304521319,0.9191904376995008,0.0,0.0,0.0,0,0,0.0
0,2.154831094842068,-0.891211422172874,0.0,0.0,0.0,-0.3901616169893841,0.920746388876019,0.0,0.0,0.0,0,0,0.0
0,2.1586752538301535,-0.8951823217717648,0.0,0.0,0.0,-0.38642588963930513,0.9223204604780659,0.0,0.0,0.0,0,0,0.0
0,2.1625937488804383,-0.8991648834997035,0.0,0.0,0.0,-0.3826671359841184,0.9238862825249178,0.0,0.0,0.0,0,0,0.0
0,2.1665768602332376,-0.903147713829833,0.0,0.0,0.0,-0.37879802078553504,0.925479367381554,0.0,0.0,0.0,0,0,0.0
0,2.170550615316678,-0.9070552347670342,0.0,0.0,0.0,-0.37496336592450913,0.9270396292578665,0.0,0.0,0.0,0,0,0.0
0,2.1745491136265525,-0.910922491400751,0.0,0.0,0.0,-0.37116883822963614,0.928565395396179,0.0,0.0,0.0,0,0,0.0
0,2.1785097799077997,-0.9146909470574307,0.0,0.0,0.0,-0.3674031042935033,0.9300618038364424,0.0,0.0,0.0,0,0,0.0
0,2.182559551005697,-0.918482127401727,0.0,0.0,0.0,-0.36357582372666764,0.931564608817593,0.0,0.0,0.0,0,0,0.0
0,2.186637535946796,-0.9222372746259025,0.0,0.0,0.0,-0.3597450528565689,0.9330506400754593,0.0,0.0,0.0,0,0,0.0
0,2.190761213038708,-0.9259723435507785,0.0,0.0,0.0,-0.3558843929854755,0.9345299881915827,0.0,0.0,0.0,0,0,0.0
0,2.1948807699722144,-0.9296421304322685,0.0,0.0,0.0,-0.352050124210634,0.9359811483375492,0.0,0.0,0.0,0,0,0.0
0,2.199119190805376,-0.933355923639185,0.0,0.0,0.0,-0.34812758932558413,0.9374471620045353,0.0,0.0,0.0,0,0,0.0
0,2.2033125511073037,-0.9369686013277899,0.0,0.0,0.0,-0.34418713240905935,0.9389010692740896,0.0,0.0,0.0,0,0,0.0
0,2.2076600757137075,-0.9406509243261681,0.0,0.0,0.0,-0.34012467855924355,0.9403803501961168,0.0,0.0,0.0,0,0,0.0
0,2.2118700715863913,-0.944154695983141,0.0,0.0,0.0,-0.3362131974261001,0.9417859023560069,0.0,0.0,0.0,0,0,0.0
0,2.2160821899955128,-0.9476013736432503,0.0,0.0,0.0,-0.33233037054138287,0.9431630425413345,0.0,0.0,0.0,0,0,0.0
0,2.220416938328974,-0.9510891627101268,0.0,0.0,0.0,-0.32835529757709764,0.9445542856570265,0.0,0.0,0.0,0,0,0.0
0,2.224860388356735,-0.9546031704148887,0.0,0.0,0.0,-0.32429237144261375,0.9459569006165798,0.0,0.0,0.0,0,0,0.0
0,2.2291621361461607,-0.9579454130828978,0.0,0.0,0.0,-0.32037977703141635,0.947289184182581,0.0,0.0,0.0,0,0,0.0
0,2.2335694705992957,-0.9613116372539255,0.0,0.0,0.0,-0.31646573334391304,0.9486039424433673,0.0,0.0,0.0,0,0,0.0
0,2.2380259550623447,-0.9646574953836107,0.0,0.0,0.0,-0.3125272784115654,0.9499087852255393,0.0,0.0,0.0,0,0,0.0
0,2.242570320692283,-0.9680107323518934,0.0,0.0,0.0,-0.3084600708110959,0.951237291486837,0.0,0.0,0.0,0,0,0.0
0,2.2469961221108656,-0.9712183533179009,0.0,0.0,0.0,-0.30451831136149393,0.9525064818916165,0.0,0.0,0.0,0,0,0.0
0,2.2515062199335047,-0.9744304335798266,0.0,0.0,0.0,-0.30059464847112066,0.9537519894136648,0.0,0.0,0.0,0,0,0.0
0,2.2561402225433675,-0.9776735877082405,0.0,0.0,0.0,-0.29658129868857513,0.9550076090106289,0.0,0.0,0.0,0,0,0.0
0,2.2606588375663192,-0.9807796992667933,0.0,0.0,0.0,-0.2926856377105327,0.9562087206661414,0.0,0.0,0.0,0,0,0.0
0,2.265266288588354,-0.9838918677137647,0.0,0.0,0.0,-0.28874250467354107,0.9574067923275091,0.0,0.0,0.0,0,0,0.0
0,2.2699197626802126,-0.9869795763608779,0.0,0.0,0.0,-0.2846977000552315,0.9586173478418077,0.0,0.0,0.0,0,0,0.0
0,2.274566847546416,-0.9900068420174388,0.0,0.0,0.0,-0.28068359651200775,0.9598003535366532,0.0,0.0,0.0,0,0,0.0
0,2.279193858915449,-0.9929661686614104,0.0,0.0,0.0,-0.2767035221250623,0.9609553375904549,0.0,0.0,0.0,0,0,0.0
0,2.283972891333954,-0.9959672028942805,0.0,0.0,0.0,-0.2726092700620905,0.9621248286351487,0.0,0.0,0.0,0,0,0.0
0,2.288634486592601,-0.998839432067391,0.0,0.0,0.0,-0.268732861117095,0.9632147472686556,0.0,0.0,0.0,0,0,0.0
0,2.293422016351481,-1.001736323503329,0.0,0.0,0.0,-0.26476675736560723,0.9643124826497382,0.0,0.0,0.0,0,0,0.0
0,2.298196612593283,-1.0045719687819648,0.0,0.0,0.0,-0.2608313206927242,0.9653843908753079,0.0,0.0,0.0,0,0,0.0
0,2.303101118690031,-1.0074309065312015,0.0,0.0,0.0,-0.25681272690175116,0.9664611856154838,0.0,0.0,0.0,0,0,0.0
0,2.3079129950994357,-1.010182463069882,0.0,0.0,0.0,-0.2528062471564195,0.9675169256393851,0.0,0.0,0.0,0,0,0.0
0,2.312686856626693,-1.0128600344481078,0.0,0.0,0.0,-0.2488457709628055,0.9685431236005586,0.0,0.0,0.0,0,0,0.0
0,2.317567416352301,-1.0155451910117546,0.0,0.0,0.0,-0.2448108631030748,0.969570854196189,0.0,0.0,0.0,0,0,0.0
0,2.322382383866729,-1.0181422640451034,0.0,0.0,0.0,-0.24096740773575148,0.9705332082979501,0.0,0.0,0.0,0,0,0.0
0,2.3273302866385857,-1.0207606384765666,0.0,0.0,0.0,-0.23703060998706865,0.9715021821535751,0.0,0.0,0.0,0,0,0.0
0,2.3322196621287845,-1.0232975082352358,0.0,0.0,0.0,-0.23316186374215225,0.9724379390461306,0.0,0.0,0.0,0,0,0.0
0,2.3372139577156705,-1.025838561861972,0.0,0.0,0.0,-0.22922243978640913,0.9733740663785768,0.0,0.0,0.0,0,0,0.0
0,2.342205197344327,-1.0283273844813876,0.0,0.0,0.0,-0.2252977213402094,0.9742899654409407,0.0,0.0,0.0,0,0,0.0
0,2.347138504030923,-1.0307378660753599,0.0,0.0,0.0,-0.2214366377092252,0.975174761506897,0.0,0.0,0.0,0,0,0.0
0,2.3522806421930342,-1.0332001155320982,0.0,0.0,0.0,-0.21743452882614586,0.9760749078191447,0.0,0.0,0.0,0,0,0.0
0,2.3571767421583507,-1.0354953661891984,0.0,0.0,0.0,-0.21365877479152412,0.976908351870627,0.0,0.0,0.0,0,0,0.0
0,2.3623321917246827,-1.0378637421010346,0.0,0.0,0.0,-0.20969382669667874,0.9777670985696457,0.0,0.0,0.0,0,0,0.0
0,2.36740309641979,-1.0401436354337468,0.0,0.0,0.0,-0.20580490664818213,0.9785930412584861,0.0,0.0,0.0,0,0,0.0
0,2.3724843310383466,-1.0423797754848427,0.0,0.0,0.0,-0.20191857774578864,0.9794023115967809,0.0,0.0,0.0,0,0,0.0
0,2.377660287627102,-1.0446087177980907,0.0,0.0,0.0,-0.19797020713489408,0.980208037656786,0.0,0.0,0.0,0,0,0.0
0,2.382752109622994,-1.0467529484043547,0.0,0.0,0.0,-0.19409620441999692,0.9809824990435613,0.0,0.0,0.0,0,0,0.0
0,2.387907928760992,-1.0488763250464317,0.0,0.0,0.0,-0.19018332662678422,0.9817485942302998,0.0,0.0,0.0,0,0,0.0
0,2.3930915134634962,-1.0509629471779458,0.0,0.0,0.0,-0.18625909684340286,0.9825006609886223,0.0,0.0,0.0,0,0,0.0
0,2.3981595911136875,-1.0529561592367604,0.0,0.0,0.0,-0.18243163064518508,0.9832185413935901,0.0,0.0,0.0,0,0,0.0
0,2.4032941014556415,-1.0549294633928974,0.0,0.0,0.0,-0.1787149431998605,0.9839008939304155,0.0,0.0,0.0,0,0,0.0
0,2.408494215957923,-1.0568830051632596,0.0,0.0,0.0,-0.17496293009450942,0.9845750215665355,0.0,0.0,0.0,0,0,0.0
0,2.4136904837237023,-1.0587900215350439,0.0,0.0,0.0,-0.17122176289857557,0.9852325146430684,0.0,0.0,0.0,0,0,0.0
0,2.4190176103752514,-1.0606992685047638,0.0,0.0,0.0,-0.16739438086830188,0.985890014785482,0.0,0.0,0.0,0,0,0.0
0,2.42423637386751,-1.0625240638805775,0.0,0.0,0.0,-0.16368196567282767,0.9865131596250905,0.0,0.0,0.0,0,0,0.0
0,2.429460391409912,-1.064306672765375,0.0,0.0,0.0,-0.15997315123688396,0.9871213658326625,0.0,0.0,0.0,0,0,0.0
0,2.4347315929482685,-1.066061259042575,0.0,0.0,0.0,-0.15623802578637952,0.9877194334923124,0.0,0.0,0.0,0,0,0.0
0,2.4399218674579144,-1.067745399262873,0.0,0.0,0.0,-0.1525974286856857,0.9882884319663552,0.0,0.0,0.0,0,0,0.0
0,2.4453522955863267,-1.0694633356121965,0.0,0.0,0.0,-0.14879515591397258,0.9888680405274187,0.0,0.0,0.0,0,0,0.0
0,2.4507118490152804,-1.0711136058159418,0.0,0.0,0.0,-0.14504935672228403,0.989424420617589,0.0,0.0,0.0,0,0,0.0
0,2.455907953440127,-1.0726705621666988,0.0,0.0,0.0,-0.1413623643138404,0.9899579192852599,0.0,0.0,0.0,0,0,0.0
0,2.4612506226337034,-1.0742281497923132,0.0,0.0,0.0,-0.13764156638968333,0.990482104432884,0.0,0.0,0.0,0,0,0.0
0,2.466634029097295,-1.0757538136551,0.0,0.0,0.0,-0.13389852930363524,0.9909950473389478,0.0,0.0,0.0,0,0,0.0
0,2.4719177700406245,-1.0772081927899935,0.0,0.0,0.0,-0.13026114003978004,0.9914797201130928,0.0,0.0,0.0,0,0,0.0
0,2.477297775456485,-1.0786466782894728,0.0,0.0,0.0,-0.12656305193651354,0.9919585646006165,0.0,0.0,0.0,0,0,0.0
0,2.482713809232838,-1.080051602218207,0.0,0.0,0.0,-0.12282534796942117,0.9924283016400685,0.0,0.0,0.0,0,0,0.0
0,2.488080284153335,-1.0814006010836472,0.0,0.0,0.0,-0.11928119550536259,0.9928605120553499,0.0,0.0,0.0,0,0,0.0
0,2.4934233759528794,-1.0827032290030998,0.0,0.0,0.0,-0.11569789694855438,0.9932844490082796,0.0,0.0,0.0,0,0,0.0
0,2.4989012861219217,-1.083996916588391,0.0,0.0,0.0,-0.11202898092970162,0.9937049398246205,0.0,0.0,0.0,0,0,0.0
0,2.504333398717463,-1.085237502833453,0.0,0.0,0.0,-0.10853581458796392,0.9940925394306744,0.0,0.0,0.0,0,0,0.0
0,2.50968000680977,-1.0864190816330035,0.0,0.0,0.0,-0.10510175216157135,0.9944614732067641,0.0,0.0,0.0,0,0,0.0
0,2.5151532972959547,-1.0875890624734459,0.0,0.0,0.0,-0.10159030241942853,0.9948263217538673,0.0,0.0,0.0,0,0,0.0
0,2.5206883517053726,-1.0887314397911763,0.0,0.0,0.0,-0.09804320599308088,0.9951821590837521,0.0,0.0,0.0,0,0,0.0
0,2.52602498594989,-1.0897932529587284,0.0,0.0,0.0,-0.09457163098948265,0.9955180594102696,0.0,0.0,0.0,0,0,0.0
0,2.5314660709054126,-1.0908364451418568,0.0,0.0,0.0,-0.09113799693187198,0.9958382727708581,0.0,0.0,0.0,0,0,0.0
0,2.5370179038541654,-1.0918612233761078,0.0,0.0,0.0,-0.08763790345857354,0.996152396913939,0.0,0.0,0.0,0,0,0.0
0,2.542496463281436,-1.0928327104276916,0.0,0.0,0.0,-0.08419578064967195,0.9964492312811488,0.0,0.0,0.0,0,0,0.0
0,2.5479184054575224,-1.0937555619092507,0.0,0.0,0.0,-0.08075285807036632,0.99673415508523,0.0,0.0,0.0,0,0,0.0
0,2.5534543791474746,-1.0946585096283967,0.0,0.0,0.0,-0.07738013708781637,0.9970016621772858,0.0,0.0,0.0,0,0,0.0
0,2.55888280747966,-1.0955062477453181,0.0,0.0,0.0,-0.07407564822795752,0.9972526251354809,0.0,0.0,0.0,0,0,0.0
0,2.5643659917874215,-1.0963253459180557,0.0,0.0,0.0,-0.07081553366495694,0.9974894286115253,0.0,0.0,0.0,0,0,0.0
0,2.569926598689775,-1.097118882312162,0.0,0.0,0.0,-0.06751176984534497,0.9977184777943873,0.0,0.0,0.0,0,0,0.0
0,2.5754526371626647,-1.0978701737713525,0.0,0.0,0.0,-0.06423084029302256,0.9979350676047276,0.0,0.0,0.0,0,0,0.0
0,2.5808594911217564,-1.098569079885514,0.0,0.0,0.0,-0.0610649026870014,0.9981337974739795,0.0,0.0,0.0,0,0,0.0
0,2.5863724914792057,-1.0992461746968734,0.0,0.0,0.0,-0.05777772359825368,0.9983294719959959,0.0,0.0,0.0,0,0,0.0
0,2.5919666029308037,-1.0998958625285742,0.0,0.0,0.0,-0.05444416536716285,0.9985168165121071,0.0,0.0,0.0,0,0,0.0
0,2.5974715743120806,-1.1004979701075828,0.0,0.0,0.0,-0.051208101108111505,0.9986880045243867,0.0,0.0,0.0,0,0,0.0
0,2.602959316678209,-1.1010622257144198,0.0,0.0,0.0,-0.04798384760364853,0.9988481117613177,0.0,0.0,0.0,0,0,0.0
0,2.6085805208054116,-1.101603551076836,0.0,0.0,0.0,-0.04468278494825319,0.9990012255894725,0.0,0.0,0.0,0,0,0.0
0,2.614021011374989,-1.1020912052736478,0.0,0.0,0.0,-0.04148934453066034,0.9991389464385902,0.0,0.0,0.0,0,0,0.0
0,2.6195491194430534,-1.1025511087800537,0.0,0.0,0.0,-0.038288304941250316,0.9992667340128589,0.0,0.0,0.0,0,0,0.0
0,2.6251313024737986,-1.1029795160722946,0.0,0.0,0.0,-0.035067981270394774,0.9993849291887582,0.0,0.0,0.0,0,0,0.0
0,2.630663279033152,-1.1033682239688252,0.0,0.0,0.0,-0.031877773774578275,0.9994917746230715,0.0,0.0,0.0,0,0,0.0
0,2.6361789200986654,-1.103720413751411,0.0,0.0,0.0,-0.028865413493628696,0.9995833071354492,0.0,0.0,0.0,0,0,0.0
0,2.641737311867371,-1.1040417060013115,0.0,0.0,0.0,-0.02584359167377552,0.9996659986062341,0.0,0.0,0.0,0,0,0.0
0,2.647241392598947,-1.1043264818095742,0.0,0.0,0.0,-0.022886561311607292,0.9997380683515708,0.0,0.0,0.0,0,0,0.0
0,2.6527683645675073,-1.1045796675446722,0.0,0.0,0.0,-0.01991788805392037,0.9998016191902629,0.0,0.0,0.0,0,0,0.0
0,2.658436239213435,-1.1048055861927404,0.0,0.0,0.0,-0.01688286076704564,0.9998574743493798,0.0,0.0,0.0,0,0,0.0
0,2.664028071481951,-1.1049944792141244,0.0,0.0,0.0,-0.013889069302472877,0.9999035422249044,0.0,0.0,0.0,0,0,0.0
0,2.6695018375350523,-1.105146574259903,0.0,0.0,0.0,-0.011029848018729162,0.9999391693761595,0.0,0.0,0.0,0,0,0.0
0,2.6750525930571944,-1.1052690445897926,0.0,0.0,0.0,-0.0081774723718949,0.9999665639138176,0.0,0.0,0.0,0,0,0.0
0,2.6806738837033492,-1.1053609897106569,0.0,0.0,0.0,-0.005289099583318213,0.9999860126149754,0.0,0.0,0.0,0,0,0.0
0,2.6862499173672094,-1.1054199765805408,0.0,0.0,0.0,-0.0024241603125362303,0.9999970617190728,0.0,0.0,0.0,0,0,0.0
