time,x,y,z,w0,w1,w2,w3,vx,vy,vz,roll,pitch,yaw
0,0.0,0.0,0.0,0.0,0.0,0.0,1.0,0.0,0.0,0.0,0,0,0.0
0,0.0,0.0,0.0,0.0,0.0,0.0,1.0,0.0,0.0,0.0,0,0,0.0
0,0.0,0.0,0.0,0.0,0.0,0.0,1.0,0.0,0.0,0.0,0,0,0.0
0,0.0,0.0,0.0,0.0,0.0,0.0,1.0,0.0,0.0,0.0,0,0,0.0
0,0.0,0.0,0.0,0.0,0.0,0.0,1.0,0.0,0.0,0.0,0,0,0.0
0,0.0,0.0,0.0,0.0,0.0,0.0,1.0,0.0,0.0,0.0,0,0,0.0
0,0.0,0.0,0.0,0.0,0.0,0.0,1.0,0.0,0.0,0.0,0,0,0.0
0,0.0,0.0,0.0,0.0,0.0,0.0,1.0,0.0,0.0,0.0,0,0,0.0
0,0.0,0.0,0.0,0.0,0.0,0.0,1.0,0.0,0.0,0.0,0,0,0.0
0,0.0,0.0,0.0,0.0,0.0,0.0,1.0,0.0,0.0,0.0,0,0,0.0
0,0.0,0.0,0.0,0.0,0.0,0.0,1.0,0.0,0.0,0.0,0,0,0.0
0,0.0,0.0,0.0,0.0,0.0,0.0,1.0,0.0,0.0,0.0,0,0,0.0
0,0.0,0.0,0.0,0.0,0.0,0.0,1.0,0.0,0.0,0.0,0,0,0.0
0,0.0,0.0,0.0,0.0,0.0,0.0,1.0,0.0,0.0,0.0,0,0,0.0
0,0.0,0.0,0.0,0.0,0.0,0.0,1.0,0.0,0.0,0.0,0,0,0.0
0,0.0,0.0,0.0,0.0,0.0,0.0,1.0,0.0,0.0,0.0,0,0,0.0
0,0.0,0.0,0.0,0.0,0.0,0.0,1.0,0.0,0.0,0.0,0,0,0.0
0,0.0,0.0,0.0,0.0,0.0,0.0,1.0,0.0,0.0,0.0,0,0,0.0
0,0.005513164732191298,0.0,0.0,0.0,0.0,0.0,1.0,0.0,0.0,0.0,0,0,0.0
0,0.010841555065578885,0.0,0.0,0.0,0.0,0.0,1.0,0.0,0.0,0.0,0,0,0.0
0,0.01639478736453586,0.0,0.0,0.0,0.0,0.0,1.0,0.0,0.0,0.0,0,0,0.0
0,0.021949542893303767,0.0,0.0,0.0,0.0,0.0,1.0,0.0,0.0,0.0,0,0,0.0
0,0.027505291832817927,0.0,0.0,0.0,0.0,0.0,1.0,0.0,0.0,0.0,0,0,0.0
0,0.03306269645690918,0.0,0.0,0.0,0.0,0.0,1.0,0.0,0.0,0.0,0,0,0.0
0,0.03872301843431261,0.0,0.0,0.0,0.0,0.0,1.0,0.0,0.0,0.0,0,0,0.0
0,0.044172803560892746,0.0,0.0,0.0,0.0,0.0,1.0,0.0,0.0,0.0,0,0,0.0
0,0.04972742663489448,0.0,0.0,0.0,0.0,0.0,1.0,0.0,0.0,0.0,0,0,0.0
0,0.05528344048394098,0.0,0.0,0.0,0.0,0.0,1.0,0.0,0.0,0.0,0,0,0.0
0,0.06089713838365344,0.0,0.0,0.0,0.0,0.0,1.0,0.0,0.0,0.0,0,0,0.0
0,0.06640944215986465,0.0,0.0,0.0,0.0,0.0,1.0,0.0,0.0,0.0,0,0,0.0
0,0.07195081975724964,0.0,0.0,0.0,0.0,0.0,1.0,0.0,0.0,0.0,0,0,0.0
0,0.07750584019554987,0.0,0.0,0.0,0.0,0.0,1.0,0.0,0.0,0.0,0,0,0.0
0,0.08305999967787002,0.0,0.0,0.0,0.0,0.0,1.0,0.0,0.0,0.0,0,0,0.0
0,0.08861614598168269,0.0,0.0,0.0,0.0,0.0,1.0,0.0,0.0,0.0,0,0,0.0
0,0.09417547119988337,0.0,0.0,0.0,0.0,0.0,1.0,0.0,0.0,0.0,0,0,0.0
0,0.0997313525941637,0.0,0.0,0.0,0.0,0.0,1.0,0.0,0.0,0.0,0,0,0.0
0,0.10528491603003609,0.0,0.0,0.0,0.0,0.0,1.0,0.0,0.0,0.0,0,0,0.0
0,0.1108506653043959,0.0,0.0,0.0,0.0,0.0,1.0,0.0,0.0,0.0,0,0,0.0
0,0.11642813682556154,0.0,0.0,0.0,0.0,0.0,1.0,0.0,0.0,0.0,0,0,0.0
0,0.12196030881669788,0.0,0.0,0.0,0.0,0.0,1.0,0.0,0.0,0.0,0,0,0.0
0,0.12750671969519722,0.0,0.0,0.0,0.0,0.0,1.0,0.0,0.0,0.0,0,0,0.0
0,0.13307068083021378,0.0,0.0,0.0,0.0,0.0,1.0,0.0,0.0,0.0,0,0,0.0
0,0.13862755563524037,0.0,0.0,0.0,0.0,0.0,1.0,0.0,0.0,0.0,0,0,0.0
0,0.14420602056715226,0.0,0.0,0.0,0.0,0.0,1.0,0.0,0.0,0.0,0,0,0.0
0,0.1497523652182685,0.0,0.0,0.0,0.0,0.0,1.0,0.0,0.0,0.0,0,0,0.0
0,0.15530798170301652,0.0,0.0,0.0,0.0,0.0,1.0,0.0,0.0,0.0,0,0,0.0
0,0.16086379686991376,0.0,0.0,0.0,0.0,0.0,1.0,0.0,0.0,0.0,0,0,0.0
0,0.16642749309539798,0.0,0.0,0.0,0.0,0.0,1.0,0.0,0.0,0.0,0,0,0.0
0,0.1719695329666138,0.0,0.0,0.0,0.0,0.0,1.0,0.0,0.0,0.0,0,0,0.0
0,0.17751263247595897,0.0,0.0,0.0,0.0,0.0,1.0,0.0,0.0,0.0,0,0,0.0
0,0.18306599722968211,0.0,0.0,0.0,0.0,0.0,1.0,0.0,0.0,0.0,0,0,0.0
0,0.1886257860395644,0.0,0.0,0.0,0.0,0.0,1.0,0.0,0.0,0.0,0,0,0.0
0,0.19425365659925678,0.0,0.0,0.0,0.0,0.0,1.0,0.0,0.0,0.0,0,0,0.0
0,0.19976807965172666,0.0,0.0,0.0,0.0,0.0,1.0,0.0,0.0,0.0,0,0,0.0
0,0.2053006490071615,0.0,0.0,0.0,0.0,0.0,1.0,0.0,0.0,0.0,0,0,0.0
0,0.21084858311547178,0.0,0.0,0.0,0.0,0.0,1.0,0.0,0.0,0.0,0,0,0.0
0,0.2164089017444187,0.0,0.0,0.0,0.0,0.0,1.0,0.0,0.0,0.0,0,0,0.0
0,0.22195398807525638,0.0,0.0,0.0,0.0,0.0,1.0,0.0,0.0,0.0,0,0,0.0
0,0.22751344574822321,0.0,0.0,0.0,0.0,0.0,1.0,0.0,0.0,0.0,0,0,0.0
0,0.23306601577334934,0.0,0.0,0.0,0.0,0.0,1.0,0.0,0.0,0.0,0,0,0.0
0,0.2386258708106147,0.0,0.0,0.0,0.0,0.0,1.0,0.0,0.0,0.0,0,0,0.0
0,0.24420036209954157,0.0,0.0,0.0,0.0,0.0,1.0,0.0,0.0,0.0,0,0,0.0
0,0.24974266688028973,0.0,0.0,0.0,0.0,0.0,1.0,0.0,0.0,0.0,0,0,0.0
0,0.25530185964372426,0.0,0.0,0.0,0.0,0.0,1.0,0.0,0.0,0.0,0,0,0.0
0,0.26086264186435276,0.0,0.0,0.0,0.0,0.0,1.0,0.0,0.0,0.0,0,0,0.0
0,0.2665526337093777,0.0,0.0,0.0,0.0,0.0,1.0,0.0,0.0,0.0,0,0,0.0
0,0.2719662586847941,0.0,0.0,0.0,0.0,0.0,1.0,0.0,0.0,0.0,0,0,0.0
0,0.27752253744337296,0.0,0.0,0.0,0.0,0.0,1.0,0.0,0.0,0.0,0,0,0.0
0,0.2830946445465088,0.0,0.0,0.0,0.0,0.0,1.0,0.0,0.0,0.0,0,0,0.0
0,0.28864920139312744,0.0,0.0,0.0,0.0,0.0,1.0,0.0,0.0,0.0,0,0,0.0
0,0.2941853470272488,0.0,0.0,0.0,0.0,0.0,1.0,0.0,0.0,0.0,0,0,0.0
0,0.29974599679311115,0.0,0.0,0.0,0.0,0.0,1.0,0.0,0.0,0.0,0,0,0.0
0,0.3052965137693617,0.0,0.0,0.0,0.0,0.0,1.0,0.0,0.0,0.0,0,0,0.0
0,0.31084934870402015,0.0,0.0,0.0,0.0,0.0,1.0,0.0,0.0,0.0,0,0,0.0
0,0.31641297870212126,0.0,0.0,0.0,0.0,0.0,1.0,0.0,0.0,0.0,0,0,0.0
0,0.3219915098614162,0.0,0.0,0.0,0.0,0.0,1.0,0.0,0.0,0.0,0,0,0.0
0,0.32752533753712965,0.0,0.0,0.0,0.0,0.0,1.0,0.0,0.0,0.0,0,0,0.0
0,0.3330790996551513,0.0,0.0,0.0,0.0,0.0,1.0,0.0,0.0,0.0,0,0,0.0
0,0.33863610691494406,0.0,0.0,0.0,0.0,0.0,1.0,0.0,0.0,0.0,0,0,0.0
0,0.34417556391821963,0.0,0.0,0.0,0.0,0.0,1.0,0.0,0.0,0.0,0,0,0.0
0,0.34973482290903724,0.0,0.0,0.0,0.0,0.0,1.0,0.0,0.0,0.0,0,0,0.0
0,0.3552977906333075,0.0,0.0,0.0,0.0,0.0,1.0,0.0,0.0,0.0,0,0,0.0
0,0.3608535395728217,0.0,0.0,0.0,0.0,0.0,1.0,0.0,0.0,0.0,0,0,0.0
0,0.36640591091579855,0.0,0.0,0.0,0.0,0.0,1.0,0.0,0.0,0.0,0,0,0.0
0,0.37198285261789954,0.0,0.0,0.0,0.0,0.0,1.0,0.0,0.0,0.0,0,0,0.0
0,0.3775175412495931,0.0,0.0,0.0,0.0,0.0,1.0,0.0,0.0,0.0,0,0,0.0
0,0.3831116358439127,0.0,0.0,0.0,0.0,0.0,1.0,0.0,0.0,0.0,0,0,0.0
0,0.3886344035466512,0.0,0.0,0.0,0.0,0.0,1.0,0.0,0.0,0.0,0,0,0.0
0,0.3942011462317572,0.0,0.0,0.0,0.0,0.0,1.0,0.0,0.0,0.0,0,0,0.0
0,0.39976113372378874,0.0,0.0,0.0,0.0,0.0,1.0,0.0,0.0,0.0,0,0,0.0
0,0.4053136375215318,0.0,0.0,0.0,0.0,0.0,1.0,0.0,0.0,0.0,0,0,0.0
0,0.4108541541629367,0.0,0.0,0.0,0.0,0.0,1.0,0.0,0.0,0.0,0,0,0.0
0,0.416497786839803,0.0,0.0,0.0,0.0,0.0,1.0,0.0,0.0,0.0,0,0,0.0
0,0.4220280382368299,0.0,0.0,0.0,0.0,0.0,1.0,0.0,0.0,0.0,0,0,0.0
0,0.42752226193745924,0.0,0.0,0.0,0.0,0.0,1.0,0.0,0.0,0.0,0,0,0.0
0,0.4330820507473415,0.0,0.0,0.0,0.0,0.0,1.0,0.0,0.0,0.0,0,0,0.0
0,0.4386447535620795,0.0,0.0,0.0,0.0,0.0,1.0,0.0,0.0,0.0,0,0,0.0
0,0.44420096609327525,0.0,0.0,0.0,0.0,0.0,1.0,0.0,0.0,0.0,0,0,0.0
0,0.4497665829128689,0.0,0.0,0.0,0.0,0.0,1.0,0.0,0.0,0.0,0,0,0.0
0,0.4553308089574178,0.0,0.0,0.0,0.0,0.0,1.0,0.0,0.0,0.0,0,0,0.0
0,0.46086569627126056,0.0,0.0,0.0,0.0,0.0,1.0,0.0,0.0,0.0,0,0,0.0
0,0.46640661027696395,0.0,0.0,0.0,0.0,0.0,1.0,0.0,0.0,0.0,0,0,0.0
0,0.4719762669669257,0.0,0.0,0.0,0.0,0.0,1.0,0.0,0.0,0.0,0,0,0.0
0,0.47752214802636034,0.0,0.0,0.0,0.0,0.0,1.0,0.0,0.0,0.0,0,0,0.0
0,0.4830747180514865,0.0,0.0,0.0,0.0,0.0,1.0,0.0,0.0,0.0,0,0,0.0
0,0.48862881130642355,0.0,0.0,0.0,0.0,0.0,1.0,0.0,0.0,0.0,0,0,0.0
0,0.4941915141211615,0.0,0.0,0.0,0.0,0.0,1.0,0.0,0.0,0.0,0,0,0.0
0,0.49973600440555144,0.0,0.0,0.0,0.0,0.0,1.0,0.0,0.0,0.0,0,0,0.0
0,0.5053083101908366,0.0,0.0,0.0,0.0,0.0,1.0,0.0,0.0,0.0,0,0,0.0
0,0.510855582025316,0.0,0.0,0.0,0.0,0.0,1.0,0.0,0.0,0.0,0,0,0.0
0,0.516415172153049,0.0,0.0,0.0,0.0,0.0,1.0,0.0,0.0,0.0,0,0,0.0
0,0.5219827095667521,0.0,0.0,0.0,0.0,0.0,1.0,0.0,0.0,0.0,0,0,0.0
0,0.5276056793000963,0.0,0.0,0.0,0.0,0.0,1.0,0.0,0.0,0.0,0,0,0.0
0,0.5331345399220784,0.0,0.0,0.0,0.0,0.0,1.0,0.0,0.0,0.0,0,0,0.0
0,0.5386659171846178,0.0,0.0,0.0,0.0,0.0,1.0,0.0,0.0,0.0,0,0,0.0
0,0.5445610814624362,0.0,0.0,0.0,0.0,0.0,1.0,0.0,0.0,0.0,0,0,0.0
0,0.5498198668162028,0.0,0.0,0.0,0.0,0.0,1.0,0.0,0.0,0.0,0,0,0.0
0,0.5553194549348619,0.0,0.0,0.0,0.0,0.0,1.0,0.0,0.0,0.0,0,0,0.0
0,0.5609444114896986,0.0,0.0,0.0,0.0,0.0,1.0,0.0,0.0,0.0,0,0,0.0
0,0.566493935055203,0.0,0.0,0.0,0.0,0.0,1.0,0.0,0.0,0.0,0,0,0.0
0,0.5719863043891059,0.0,0.0,0.0,0.0,0.0,1.0,0.0,0.0,0.0,0,0,0.0
0,0.577555431260003,0.0,0.0,0.0,0.0,0.0,1.0,0.0,0.0,0.0,0,0,0.0
0,0.5831532345877753,0.0,0.0,0.0,0.0,0.0,1.0,0.0,0.0,0.0,0,0,0.0
0,0.5887554089228312,0.0,0.0,0.0,0.0,0.0,1.0,0.0,0.0,0.0,0,0,0.0
0,0.5947534243265787,0.0,0.0,0.0,0.0,0.0,1.0,0.0,0.0,0.0,0,0,0.0
0,0.5997997522354126,0.0,0.0,0.0,0.0,0.0,1.0,0.0,0.0,0.0,0,0,0.0
0,0.6053892109129164,0.0,0.0,0.0,0.0,0.0,1.0,0.0,0.0,0.0,0,0,0.0
0,0.6111223167843289,0.0,0.0,0.0,0.0,0.0,1.0,0.0,0.0,0.0,0,0,0.0
0,0.6164199776119657,0.0,0.0,0.0,0.0,0.0,1.0,0.0,0.0,0.0,0,0,0.0
0,0.6219850646124946,0.0,0.0,0.0,0.0,0.0,1.0,0.0,0.0,0.0,0,0,0.0
0,0.6275682316886054,0.0,0.0,0.0,0.0,0.0,1.0,0.0,0.0,0.0,0,0,0.0
0,0.633168617884318,0.0,0.0,0.0,0.0,0.0,1.0,0.0,0.0,0.0,0,0,0.0
0,0.6387072801589966,0.0,0.0,0.0,0.0,0.0,1.0,0.0,0.0,0.0,0,0,0.0
0,0.6442619694603814,0.0,0.0,0.0,0.0,0.0,1.0,0.0,0.0,0.0,0,0,0.0
0,0.6498088439305624,0.0,0.0,0.0,0.0,0.0,1.0,0.0,0.0,0.0,0,0,0.0
0,0.6553226047092015,0.0,0.0,0.0,0.0,0.0,1.0,0.0,0.0,0.0,0,0,0.0
0,0.6609339184231229,0.0,0.0,0.0,0.0,0.0,1.0,0.0,0.0,0.0,0,0,0.0
0,0.6666402022043865,0.0,0.0,0.0,0.0,0.0,1.0,0.0,0.0,0.0,0,0,0.0
0,0.672076874309116,0.0,0.0,0.0,0.0,0.0,1.0,0.0,0.0,0.0,0,0,0.0
0,0.6776486502753364,0.0,0.0,0.0,0.0,0.0,1.0,0.0,0.0,0.0,0,0,0.0
0,0.6831124756071303,0.0,0.0,0.0,0.0,0.0,1.0,0.0,0.0,0.0,0,0,0.0
0,0.688678092426724,0.0,0.0,0.0,0.0,0.0,1.0,0.0,0.0,0.0,0,0,0.0
0,0.6942395369211833,0.0,0.0,0.0,0.0,0.0,1.0,0.0,0.0,0.0,0,0,0.0
0,0.6999146276050144,0.0,0.0,0.0,0.0,0.0,1.0,0.0,0.0,0.0,0,0,0.0
0,0.7053592469957141,0.0,0.0,0.0,0.0,0.0,1.0,0.0,0.0,0.0,0,0,0.0
0,0.7108877764807808,0.0,0.0,0.0,0.0,0.0,1.0,0.0,0.0,0.0,0,0,0.0
0,0.7164651817745634,0.0,0.0,0.0,0.0,0.0,1.0,0.0,0.0,0.0,0,0,0.0
0,0.7220135132471722,0.0,0.0,0.0,0.0,0.0,1.0,0.0,0.0,0.0,0,0,0.0
0,0.7275597254435223,0.0,0.0,0.0,0.0,0.0,1.0,0.0,0.0,0.0,0,0,0.0
0,0.7331052753660415,0.0,0.0,0.0,0.0,0.0,1.0,0.0,0.0,0.0,0,0,0.0
0,0.7387012905544706,0.0,0.0,0.0,0.0,0.0,1.0,0.0,0.0,0.0,0,0,0.0
0,0.7442837291293676,0.0,0.0,0.0,0.0,0.0,1.0,0.0,0.0,0.0,0,0,0.0
0,0.7499389515982735,0.0,0.0,0.0,0.0,0.0,1.0,0.0,0.0,0.0,0,0,0.0
0,0.7553530401653715,0.0,0.0,0.0,0.0,0.0,1.0,0.0,0.0,0.0,0,0,0.0
0,0.7610074679056805,0.0,0.0,0.0,0.0,0.0,1.0,0.0,0.0,0.0,0,0,0.0
0,0.7664916250440811,0.0,0.0,0.0,0.0,0.0,1.0,0.0,0.0,0.0,0,0,0.0
0,0.7719731330871583,0.0,0.0,0.0,0.0,0.0,1.0,0.0,0.0,0.0,0,0,0.0
0,0.7776698801252578,0.0,0.0,0.0,0.0,0.0,1.0,0.0,0.0,0.0,0,0,0.0
0,0.7832543717490303,0.0,0.0,0.0,0.0,0.0,1.0,0.0,0.0,0.0,0,0,0.0
0,0.7887619733810426,0.0,0.0,0.0,0.0,0.0,1.0,0.0,0.0,0.0,0,0,0.0
0,0.7949893342124092,0.0,0.0,0.0,0.0,0.0,1.0,0.0,0.0,0.0,0,0,0.0
0,0.7997796932856243,0.0,0.0,0.0,0.0,0.0,1.0,0.0,0.0,0.0,0,0,0.0
0,0.805372264650133,0.0,0.0,0.0,0.0,0.0,1.0,0.0,0.0,0.0,0,0,0.0
0,0.8109759622149998,0.0,0.0,0.0,0.0,0.0,1.0,0.0,0.0,0.0,0,0,0.0
0,0.8168972863091364,0.0,0.0,0.0,0.0,0.0,1.0,0.0,0.0,0.0,0,0,0.0
0,0.8219708998998008,0.0,0.0,0.0,0.0,0.0,1.0,0.0,0.0,0.0,0,0,0.0
0,0.8275585042105782,0.0,0.0,0.0,0.0,0.0,1.0,0.0,0.0,0.0,0,0,0.0
0,0.8331535922156441,0.0,0.0,0.0,0.0,0.0,1.0,0.0,0.0,0.0,0,0,0.0
0,0.8389476272794937,0.0,0.0,0.0,0.0,0.0,1.0,0.0,0.0,0.0,0,0,0.0
0,0.8443523777855768,0.0,0.0,0.0,0.0,0.0,1.0,0.0,0.0,0.0,0,0,0.0
0,0.8500666750801935,0.0,0.0,0.0,0.0,0.0,1.0,0.0,0.0,0.0,0,0,0.0
0,0.8553077777226767,0.0,0.0,0.0,0.0,0.0,1.0,0.0,0.0,0.0,0,0,0.0
0,0.8609547217686973,0.0,0.0,0.0,0.0,0.0,1.0,0.0,0.0,0.0,0,0,0.0
0,0.8666512701246475,0.0,0.0,0.0,0.0,0.0,1.0,0.0,0.0,0.0,0,0,0.0
0,0.8723631832334732,0.0,0.0,0.0,0.0,0.0,1.0,0.0,0.0,0.0,0,0,0.0
0,0.8783441781997682,0.0,0.0,0.0,0.0,0.0,1.0,0.0,0.0,0.0,0,0,0.0
0,0.8836145533455744,0.0,0.0,0.0,0.0,0.0,1.0,0.0,0.0,0.0,0,0,0.0
0,0.8887541294097902,0.0,0.0,0.0,0.0,0.0,1.0,0.0,0.0,0.0,0,0,0.0
0,0.8942561679416233,0.0,0.0,0.0,0.0,0.0,1.0,0.0,0.0,0.0,0,0,0.0
0,0.8997721804512873,0.0,0.0,0.0,0.0,0.0,1.0,0.0,0.0,0.0,0,0,0.0
0,0.9053478638331096,0.0,0.0,0.0,0.0,0.0,1.0,0.0,0.0,0.0,0,0,0.0
0,0.9109218253029718,0.0,0.0,0.0,0.0,0.0,1.0,0.0,0.0,0.0,0,0,0.0
0,0.9164706865946453,0.0,0.0,0.0,0.0,0.0,1.0,0.0,0.0,0.0,0,0,0.0
0,0.9220471647050646,0.0,0.0,0.0,0.0,0.0,1.0,0.0,0.0,0.0,0,0,0.0
0,0.927560395664639,0.0,0.0,0.0,0.0,0.0,1.0,0.0,0.0,0.0,0,0,0.0
0,0.9331629011366103,0.0,0.0,0.0,0.0,0.0,1.0,0.0,0.0,0.0,0,0,0.0
0,0.9387490484449599,0.0,0.0,0.0,0.0,0.0,1.0,0.0,0.0,0.0,0,0,0.0
0,0.9444355964660645,0.0,0.0,0.0,0.0,0.0,1.0,0.0,0.0,0.0,0,0,0.0
0,0.9497678279876709,0.0,0.0,0.0,0.0,0.0,1.0,0.0,0.0,0.0,0,0,0.0
0,0.9553671545452542,0.0,0.0,0.0,0.0,0.0,1.0,0.0,0.0,0.0,0,0,0.0
0,0.9608752197689481,0.0,0.0,0.0,0.0,0.0,1.0,0.0,0.0,0.0,0,0,0.0
0,0.9665241506364611,0.0,0.0,0.0,0.0,0.0,1.0,0.0,0.0,0.0,0,0,0.0
0,0.9720416201485529,0.0,0.0,0.0,0.0,0.0,1.0,0.0,0.0,0.0,0,0,0.0
0,0.9776258468627931,0.0,0.0,0.0,0.0,0.0,1.0,0.0,0.0,0.0,0,0,0.0
0,0.9831792778438994,0.0,0.0,0.0,0.0,0.0,1.0,0.0,0.0,0.0,0,0,0.0
0,0.9886928399403891,0.0,0.0,0.0,0.0,0.0,1.0,0.0,0.0,0.0,0,0,0.0
0,0.9942046801249188,0.0,0.0,0.0,0.0,0.0,1.0,0.0,0.0,0.0,0,0,0.0
0,0.9998148017459447,0.0,0.0,0.0,0.0,0.0,1.0,0.0,0.0,0.0,0,0,0.0
0,1.005511283874512,0.0,0.0,0.0,0.0,0.0,1.0,0.0,0.0,0.0,0,0,0.0
0,1.0110435220930314,0.0,0.0,0.0,0.0,0.0,1.0,0.0,0.0,0.0,0,0,0.0
0,1.0164725118213231,0.0,0.0,0.0,0.0,0.0,1.0,0.0,0.0,0.0,0,0,0.0
0,1.0223233037524755,0.0,0.0,0.0,0.0,0.0,1.0,0.0,0.0,0.0,0,0,0.0
0,1.0276466608047488,0.0,0.0,0.0,0.0,0.0,1.0,0.0,0.0,0.0,0,0,0.0
0,1.0331043269899158,0.0,0.0,0.0,0.0,0.0,1.0,0.0,0.0,0.0,0,0,0.0
0,1.0386887523863053,0.0,0.0,0.0,0.0,0.0,1.0,0.0,0.0,0.0,0,0,0.0
0,1.0442929797702367,0.0,0.0,0.0,0.0,0.0,1.0,0.0,0.0,0.0,0,0,0.0
0,1.0498702526092532,0.0,0.0,0.0,0.0,0.0,1.0,0.0,0.0,0.0,0,0,0.0
0,1.055384741889106,0.0,0.0,0.0,0.0,0.0,1.0,0.0,0.0,0.0,0,0,0.0
0,1.0609130064646404,0.0,0.0,0.0,0.0,0.0,1.0,0.0,0.0,0.0,0,0,0.0
0,1.066467563311259,0.0,0.0,0.0,0.0,0.0,1.0,0.0,0.0,0.0,0,0,0.0
0,1.0725204149882,0.0,0.0,0.0,0.0,0.0,1.0,0.0,0.0,0.0,0,0,0.0
0,1.0775979359944663,0.0,0.0,0.0,0.0,0.0,1.0,0.0,0.0,0.0,0,0,0.0
0,1.0831071270836725,0.0,0.0,0.0,0.0,0.0,1.0,0.0,0.0,0.0,0,0,0.0
0,1.0893486605750191,0.0,0.0,0.0,0.0,0.0,1.0,0.0,0.0,0.0,0,0,0.0
0,1.0942878325780234,0.0,0.0,0.0,0.0,0.0,1.0,0.0,0.0,0.0,0,0,0.0
0,1.0998235808478463,0.0,0.0,0.0,0.0,0.0,1.0,0.0,0.0,0.0,0,0,0.0
0,1.1053850253423056,0.0,0.0,0.0,0.0,0.0,1.0,0.0,0.0,0.0,0,0,0.0
0,1.1109265353944568,0.0,0.0,0.0,0.0,0.0,1.0,0.0,0.0,0.0,0,0,0.0
0,1.1164871189329362,0.0,0.0,0.0,0.0,0.0,1.0,0.0,0.0,0.0,0,0,0.0
0,1.1220716767840917,0.0,0.0,0.0,0.0,0.0,1.0,0.0,0.0,0.0,0,0,0.0
0,1.1275834507412383,0.0,0.0,0.0,0.0,0.0,1.0,0.0,0.0,0.0,0,0,0.0
0,1.1337374316321482,0.0,0.0,0.0,0.0,0.0,1.0,0.0,0.0,0.0,0,0,0.0
0,1.138703094588386,0.0,0.0,0.0,0.0,0.0,1.0,0.0,0.0,0.0,0,0,0.0
0,1.1443081167009146,0.0,0.0,0.0,0.0,0.0,1.0,0.0,0.0,0.0,0,0,0.0
0,1.149816579288907,0.0,0.0,0.0,0.0,0.0,1.0,0.0,0.0,0.0,0,0,0.0
0,1.1553245120578346,0.0,0.0,0.0,0.0,0.0,1.0,0.0,0.0,0.0,0,0,0.0
0,1.1609075466791792,0.0,0.0,0.0,0.0,0.0,1.0,0.0,0.0,0.0,0,0,0.0
0,1.1664470699098377,0.0,0.0,0.0,0.0,0.0,1.0,0.0,0.0,0.0,0,0,0.0
0,1.1720526218414309,0.0,0.0,0.0,0.0,0.0,1.0,0.0,0.0,0.0,0,0,0.0
0,1.1775613493389556,0.0,0.0,0.0,0.0,0.0,1.0,0.0,0.0,0.0,0,0,0.0
0,1.1831787559721207,0.0,0.0,0.0,0.0,0.0,1.0,0.0,0.0,0.0,0,0,0.0
0,1.1893210808436079,0.0,0.0,0.0,0.0,0.0,1.0,0.0,0.0,0.0,0,0,0.0
0,1.1942259470621748,0.0,0.0,0.0,0.0,0.0,1.0,0.0,0.0,0.0,0,0,0.0
0,1.1998468637466433,0.0,0.0,0.0,0.0,0.0,1.0,0.0,0.0,0.0,0,0,0.0
0,1.2054273155000477,0.0,0.0,0.0,0.0,0.0,1.0,0.0,0.0,0.0,0,0,0.0
0,1.2109118700027468,0.0,0.0,0.0,0.0,0.0,1.0,0.0,0.0,0.0,0,0,0.0
0,1.2164894739786787,0.0,0.0,0.0,0.0,0.0,1.0,0.0,0.0,0.0,0,0,0.0
0,1.222046812375387,0.0,0.0,0.0,0.0,0.0,1.0,0.0,0.0,0.0,0,0,0.0
0,1.227632628546821,0.0,0.0,0.0,0.0,0.0,1.0,0.0,0.0,0.0,0,0,0.0
0,1.2331832117504546,0.0,0.0,0.0,0.0,0.0,1.0,0.0,0.0,0.0,0,0,0.0
0,1.23870591322581,0.0,0.0,0.0,0.0,0.0,1.0,0.0,0.0,0.0,0,0,0.0
0,1.2442537811067371,0.0,0.0,0.0,0.0,0.0,1.0,0.0,0.0,0.0,0,0,0.0
0,1.2498482068379722,0.0,0.0,0.0,0.0,0.0,1.0,0.0,0.0,0.0,0,0,0.0
0,1.2553687228096857,0.0,0.0,0.0,0.0,0.0,1.0,0.0,0.0,0.0,0,0,0.0
0,1.26093950536516,0.0,0.0,0.0,0.0,0.0,1.0,0.0,0.0,0.0,0,0,0.0
0,1.2664966450797188,0.0,0.0,0.0,0.0,0.0,1.0,0.0,0.0,0.0,0,0,0.0
0,1.272124316957262,0.0,0.0,0.0,0.0,0.0,1.0,0.0,0.0,0.0,0,0,0.0
0,1.2778055005603368,0.0,0.0,0.0,0.0,0.0,1.0,0.0,0.0,0.0,0,0,0.0
0,1.2831474675072565,0.0,0.0,0.0,0.0,0.0,1.0,0.0,0.0,0.0,0,0,0.0
0,1.288702686627706,0.0,0.0,0.0,0.0,0.0,1.0,0.0,0.0,0.0,0,0,0.0
0,1.2942773103713991,0.0,0.0,0.0,0.0,0.0,1.0,0.0,0.0,0.0,0,0,0.0
0,1.2998325294918487,0.0,0.0,0.0,0.0,0.0,1.0,0.0,0.0,0.0,0,0,0.0
0,1.3053914573457508,0.0,0.0,0.0,0.0,0.0,1.0,0.0,0.0,0.0,0,0,0.0
0,1.3109557496176827,0.0,0.0,0.0,0.0,0.0,1.0,0.0,0.0,0.0,0,0,0.0
0,1.316547989845276,0.0,0.0,0.0,0.0,0.0,1.0,0.0,0.0,0.0,0,0,0.0
0,1.3221258587307403,0.0,0.0,0.0,0.0,0.0,1.0,0.0,0.0,0.0,0,0,0.0
0,1.3276515404383344,0.0,0.0,0.0,0.0,0.0,1.0,0.0,0.0,0.0,0,0,0.0
0,1.3332007990943064,0.0,0.0,0.0,0.0,0.0,1.0,0.0,0.0,0.0,0,0,0.0
0,1.338805887434218,0.0,0.0,0.0,0.0,0.0,1.0,0.0,0.0,0.0,0,0,0.0
0,1.3442359368006391,0.0,0.0,0.0,0.0,0.0,1.0,0.0,0.0,0.0,0,0,0.0
0,1.350008050600688,0.0,0.0,0.0,0.0,0.0,1.0,0.0,0.0,0.0,0,0,0.0
0,1.3556785715950863,0.0,0.0,0.0,0.0,0.0,1.0,0.0,0.0,0.0,0,0,0.0
0,1.360973119735718,0.0,0.0,0.0,0.0,0.0,1.0,0.0,0.0,0.0,0,0,0.0
0,1.3665593332714507,0.0,0.0,0.0,0.0,0.0,1.0,0.0,0.0,0.0,0,0,0.0
0,1.3720314370261302,0.0,0.0,0.0,0.0,-0.00022098417607129852,0.9999999755829967,0.0,0.0,0.0,0,0,0.0
0,1.377561952792535,-2.444313118824949e-06,0.0,0.0,0.0,-0.000444327260162847,0.9999999012866381,0.0,0.0,0.0,0,0,0.0
0,1.383153197401659,-7.412999386396963e-06,0.0,0.0,0.0,-0.0006729904344655994,0.9999997735419119,0.0,0.0,0.0,0,0,0.0
0,1.388762651667625,-1.4963222642959344e-05,0.0,0.0,0.0,-0.0009020706332606091,0.9999995931342035,0.0,0.0,0.0,0,0,0.0
0,1.3943208419745503,-2.4990995382736355e-05,0.0,0.0,0.0,-0.0011290574197108788,0.9999993626144683,0.0,0.0,0.0,0,0,0.0
0,1.3999979712331445,-3.7810629720036945e-05,0.0,0.0,0.0,-0.0013609016188963936,0.9999990739729631,0.0,0.0,0.0,0,0,0.0
0,1.4054081985718916,-5.253624491679965e-05,0.0,0.0,0.0,-0.0015818461897191141,0.9999987488805334,0.0,0.0,0.0,0,0,0.0
0,1.41098676804062,-7.018518887602206e-05,0.0,0.0,0.0,-0.0018092047200477398,0.9999983633878012,0.0,0.0,0.0,0,0,0.0
0,1.4166151315733724,-9.055101260814345e-05,0.0,0.0,0.0,-0.0020383891058024105,0.9999979224827686,0.0,0.0,0.0,0,0,0.0
0,1.4220653349997385,-0.00011277042166927883,0.0,0.0,0.0,-0.002260319183092228,0.9999974454753324,0.0,0.0,0.0,0,0,0.0
0,1.4276376500734325,-0.00013796103603018898,0.0,0.0,0.0,-0.0024872219149885927,0.9999969068587891,0.0,0.0,0.0,0,0,0.0
0,1.4331676343674802,-0.00016546988754813526,0.0,0.0,0.0,-0.0027126707536705313,0.9999963207019225,0.0,0.0,0.0,0,0,0.0
0,1.4387389309745027,-0.00019569640791746666,0.0,0.0,0.0,-0.0029398042240403894,0.9999956787662256,0.0,0.0,0.0,0,0,0.0
0,1.4442649145286837,-0.00022818744871133944,0.0,0.0,0.0,-0.0031661049016240674,0.9999949878773152,0.0,0.0,0.0,0,0,0.0
0,1.449835717850766,-0.00026346347454359005,0.0,0.0,0.0,-0.003394750715647147,0.9999942378171879,0.0,0.0,0.0,0,0,0.0
0,1.45535074228757,-0.0003009083881454504,0.0,0.0,0.0,-0.0036211076678617483,0.9999934437681368,0.0,0.0,0.0,0,0,0.0
0,1.4609540942194177,-0.0003414898676242438,0.0,0.0,0.0,-0.003851090446782822,0.9999925845236907,0.0,0.0,0.0,0,0,0.0
0,1.4665068306724418,-0.00038425899970254124,0.0,0.0,0.0,-0.004080316154649393,0.9999916754753903,0.0,0.0,0.0,0,0,0.0
0,1.4721184873424873,-0.00043005481012103273,0.0,0.0,0.0,-0.0043119748063945775,0.9999907033934211,0.0,0.0,0.0,0,0,0.0
0,1.4776033676945153,-0.0004773574611755981,0.0,0.0,0.0,-0.005221621658853312,0.9999863672406998,0.0,0.0,0.0,0,0,0.0
0,1.4831305361248435,-0.0005350813867713402,0.0,0.0,0.0,-0.006138293357486869,0.9999811604998653,0.0,0.0,0.0,0,0,0.0
0,1.488703746444109,-0.0006035052537752317,0.0,0.0,0.0,-0.007062615053485089,0.9999750594232869,0.0,0.0,0.0,0,0,0.0
0,1.494319334484071,-0.0006828326624889587,0.0,0.0,0.0,-0.00800240333644794,0.9999679802577884,0.0,0.0,0.0,0,0,0.0
0,1.4998566914138458,-0.0007714655037218836,0.0,0.0,0.0,-0.008929118695631393,0.9999601346250356,0.0,0.0,0.0,0,0,0.0
0,1.5054015557027511,-0.0008704988506574138,0.0,0.0,0.0,-0.009855663826306867,0.9999514317658347,0.0,0.0,0.0,0,0,0.0
0,1.510995954047139,-0.0009807879393419067,0.0,0.0,0.0,-0.010789951751466128,0.9999417867762108,0.0,0.0,0.0,0,0,0.0
0,1.5173186005386257,-0.0011172538733396908,0.0,0.0,0.0,-0.011845889525854981,0.9999298349891063,0.0,0.0,0.0,0,0,0.0
0,1.522001019034489,-0.0012282120544635875,0.0,0.0,0.0,-0.012627923691152223,0.9999202645927576,0.0,0.0,0.0,0,0,0.0
0,1.527546389271067,-0.0013682985892983885,0.0,0.0,0.0,-0.013554265111931318,0.9999081367292075,0.0,0.0,0.0,0,0,0.0
0,1.5338004588799503,-0.0015378839617451558,0.0,0.0,0.0,-0.014599029838483967,0.9998934284851436,0.0,0.0,0.0,0,0,0.0
0,1.5386758278845887,-0.0016802808048491118,0.0,0.0,0.0,-0.015415498994290235,0.9998811741355855,0.0,0.0,0.0,0,0,0.0
0,1.5444352689559626,-0.001857913445500607,0.0,0.0,0.0,-0.016380056095526136,0.9998658378814167,0.0,0.0,0.0,0,0,0.0
0,1.5498190488319101,-0.0020343576978290195,0.0,0.0,0.0,-0.017281741249242037,0.9998506595584133,0.0,0.0,0.0,0,0,0.0
0,1.5555712340810712,-0.0022332623699879064,0.0,0.0,0.0,-0.018250753496177097,0.9998334411274818,0.0,0.0,0.0,0,0,0.0
0,1.5609215553038869,-0.0024286547959618114,0.0,0.0,0.0,-0.019152114528624677,0.9998165814333559,0.0,0.0,0.0,0,0,0.0
0,1.566465220872606,-0.002641117547712047,0.0,0.0,0.0,-0.02097739329491823,0.9997799502743343,0.0,0.0,0.0,0,0,0.0
0,1.5719997364192715,-0.002873470365125158,0.0,0.0,0.0,-0.02279662248510027,0.9997401232336691,0.0,0.0,0.0,0,0,0.0
0,1.5775441535508867,-0.0031264555856570266,0.0,0.0,0.0,-0.024619321247395222,0.999696898575422,0.0,0.0,0.0,0,0,0.0
0,1.5830612186398625,-0.003398355646067711,0.0,0.0,0.0,-0.026433260801294874,0.9996505803146472,0.0,0.0,0.0,0,0,0.0
0,1.5886188594696988,-0.003692477136496663,0.0,0.0,0.0,-0.028255522089663365,0.999600733028663,0.0,0.0,0.0,0,0,0.0
0,1.5941941695751982,-0.004007921622181653,0.0,0.0,0.0,-0.03008384741076723,0.9995473786294303,0.0,0.0,0.0,0,0,0.0
0,1.5997528192595583,-0.004342827585440299,0.0,0.0,0.0,-0.03190342291545297,0.9994909562403642,0.0,0.0,0.0,0,0,0.0
0,1.6056091494240556,-0.004717073160530957,0.0,0.0,0.0,-0.03382076032477392,0.9994279144445858,0.0,0.0,0.0,0,0,0.0
0,1.6108521379945684,-0.005072326702783339,0.0,0.0,0.0,-0.03553762050879662,0.9993683392666454,0.0,0.0,0.0,0,0,0.0
0,1.6163592384797567,-0.005464488493258305,0.0,0.0,0.0,-0.03733959292775308,0.9993026342404936,0.0,0.0,0.0,0,0,0.0
0,1.622034288435067,-0.005889185317362368,0.0,0.0,0.0,-0.039196881858839225,0.999231506935477,0.0,0.0,0.0,0,0,0.0
0,1.6274598668119815,-0.006315499938129259,0.0,0.0,0.0,-0.04097429647868839,0.9991602008827596,0.0,0.0,0.0,0,0,0.0
0,1.6329998649560502,-0.006770641995981824,0.0,0.0,0.0,-0.042793320291380874,0.9990839462920217,0.0,0.0,0.0,0,0,0.0
0,1.638729723035171,-0.007262393124356897,0.0,0.0,0.0,-0.04467510952042021,0.9990015688623008,0.0,0.0,0.0,0,0,0.0
0,1.644001157874169,-0.007734812487897585,0.0,0.0,0.0,-0.04640677654584863,0.9989226251770573,0.0,0.0,0.0,0,0,0.0
0,1.649573333798625,-0.008253663527939445,0.0,0.0,0.0,-0.04824395969974562,0.998835582241887,0.0,0.0,0.0,0,0,0.0
0,1.6550933330883757,-0.00878814457770227,0.0,0.0,0.0,-0.05006441480736292,0.9987459909156062,0.0,0.0,0.0,0,0,0.0
0,1.660638562150793,-0.009345479460215996,0.0,0.0,0.0,-0.05190234756023781,0.9986521648290441,0.0,0.0,0.0,0,0,0.0
0,1.6662241888177767,-0.009927648797394276,0.0,0.0,0.0,-0.05375418969478841,0.9985541983739574,0.0,0.0,0.0,0,0,0.0
0,1.6719587972099823,-0.010546854293237968,0.0,0.0,0.0,-0.056716271235373886,0.9983903367807381,0.0,0.0,0.0,0,0,0.0
0,1.677186579777871,-0.01114273400478507,0.0,0.0,0.0,-0.05941790737631881,0.9982331953421602,0.0,0.0,0.0,0,0,0.0
0,1.6826955373389927,-0.011800886001159675,0.0,0.0,0.0,-0.06226617779886274,0.9980595789342039,0.0,0.0,0.0,0,0,0.0
0,1.6883232053768786,-0.012505819018467989,0.0,0.0,0.0,-0.0651665376721622,0.9978744021006966,0.0,0.0,0.0,0,0,0.0
0,1.6937785131407828,-0.01322139235982728,0.0,0.0,0.0,-0.06797142300423466,0.9976872684638105,0.0,0.0,0.0,0,0,0.0
0,1.6992616006758006,-0.013971990705700014,0.0,0.0,0.0,-0.07079217479927007,0.9974910866705474,0.0,0.0,0.0,0,0,0.0
0,1.70472658747173,-0.014751620295814089,0.0,0.0,0.0,-0.07360004027123074,0.9972878391277381,0.0,0.0,0.0,0,0,0.0
0,1.7102375406276553,-0.015569493689369194,0.0,0.0,0.0,-0.0764332524993373,0.9970747002669221,0.0,0.0,0.0,0,0,0.0
0,1.7158558138428652,-0.01643595085702534,0.0,0.0,0.0,-0.07932348704445802,0.9968489275728333,0.0,0.0,0.0,0,0,0.0
0,1.7212111859135895,-0.017293681286835567,0.0,0.0,0.0,-0.08207800406597164,0.9966259083771334,0.0,0.0,0.0,0,0,0.0
0,1.7266888121749664,-0.018202071904036582,0.0,0.0,0.0,-0.08489729193671758,0.996389707806043,0.0,0.0,0.0,0,0,0.0
0,1.7321676727986894,-0.0191425512826419,0.0,0.0,0.0,-0.08771922817463733,0.9961452389127029,0.0,0.0,0.0,0,0,0.0
0,1.7376291194012732,-0.020111923599916207,0.0,0.0,0.0,-0.09053638570637486,0.9958931483162371,0.0,0.0,0.0,0,0,0.0
0,1.743114960246032,-0.021117668372115095,0.0,0.0,0.0,-0.09336828553810649,0.9956316403447987,0.0,0.0,0.0,0,0,0.0
0,1.748661756388281,-0.0221672328052103,0.0,0.0,0.0,-0.09624393431351452,0.995357777438774,0.0,0.0,0.0,0,0,0.0
0,1.754020525012918,-0.023213321940589667,0.0,0.0,0.0,-0.09902947876071565,0.9950845000985499,0.0,0.0,0.0,0,0,0.0
0,1.759604628906301,-0.02433588486778455,0.0,0.0,0.0,-0.10193454868301585,0.9947911076124424,0.0,0.0,0.0,0,0,0.0
0,1.7648891498135626,-0.025430368367096556,0.0,0.0,0.0,-0.1046862405928602,0.9945052996492949,0.0,0.0,0.0,0,0,0.0
0,1.7706277660362326,-0.02665205213137279,0.0,0.0,0.0,-0.10769091606171761,0.9941844228299839,0.0,0.0,0.0,0,0,0.0
0,1.7758022906210855,-0.027786379612262924,0.0,0.0,0.0,-0.11040293536196007,0.9938869110031899,0.0,0.0,0.0,0,0,0.0
0,1.7812067734800914,-0.02900206158124928,0.0,0.0,0.0,-0.1132380332172793,0.9935678878834009,0.0,0.0,0.0,0,0,0.0
0,1.7865953267427688,-0.030246504944147993,0.0,0.0,0.0,-0.11705288895397103,0.9931256824730339,0.0,0.0,0.0,0,0,0.0
0,1.792127464743272,-0.031568945979173556,0.0,0.0,0.0,-0.12097467025020996,0.9926555944323555,0.0,0.0,0.0,0,0,0.0
0,1.7973916990524632,-0.032871391844624946,0.0,0.0,0.0,-0.12471195305551883,0.9921929896774508,0.0,0.0,0.0,0,0,0.0
0,1.8027296487933644,-0.034234820785121,0.0,0.0,0.0,-0.12849537068696748,0.9917101087071861,0.0,0.0,0.0,0,0,0.0
0,1.8081401672489372,-0.03566083731869719,0.0,0.0,0.0,-0.13233590823878744,0.9912049270411317,0.0,0.0,0.0,0,0,0.0
0,1.8135390922990844,-0.03712862301101717,0.0,0.0,0.0,-0.1361741875654221,0.9906849098683684,0.0,0.0,0.0,0,0,0.0
0,1.8188201145807514,-0.0386083827416452,0.0,0.0,0.0,-0.1399256031886519,0.9901620198595238,0.0,0.0,0.0,0,0,0.0
0,1.8242288797023165,-0.04016822164884039,0.0,0.0,0.0,-0.143773957331913,0.9896105543056426,0.0,0.0,0.0,0,0,0.0
0,1.8297735374789548,-0.04181405379842126,0.0,0.0,0.0,-0.14771975693719203,0.9890292581164709,0.0,0.0,0.0,0,0,0.0
0,1.8348171951059835,-0.04335505485837005,0.0,0.0,0.0,-0.15131561164458682,0.9884855009926168,0.0,0.0,0.0,0,0,0.0
0,1.840132875770422,-0.045021535387536345,0.0,0.0,0.0,-0.1551117709588357,0.9878969270678059,0.0,0.0,0.0,0,0,0.0
0,1.845441458813519,-0.046730694485799244,0.0,0.0,0.0,-0.15890857376268228,0.9872933025118271,0.0,0.0,0.0,0,0,0.0
0,1.8506419163518644,-0.048449282869389806,0.0,0.0,0.0,-0.1626350984463765,0.9866862848714061,0.0,0.0,0.0,0,0,0.0
0,1.856494121866681,-0.05043239493653142,0.0,0.0,0.0,-0.16683647544396085,0.9859845792209109,0.0,0.0,0.0,0,0,0.0
0,1.861215873333306,-0.052077410149858845,0.0,0.0,0.0,-0.17024143768637393,0.9854023812100702,0.0,0.0,0.0,0,0,0.0
0,1.8664001130789916,-0.05392381356412257,0.0,0.0,0.0,-0.1739866704160432,0.984748007623036,0.0,0.0,0.0,0,0,0.0
0,1.8716620588227304,-0.0558431027419497,0.0,0.0,0.0,-0.17779589048911493,0.9840673865773536,0.0,0.0,0.0,0,0,0.0
0,1.876925558325499,-0.057809244412010755,0.0,0.0,0.0,-0.18163357065571234,0.9833662827303244,0.0,0.0,0.0,0,0,0.0
0,1.882119741037674,-0.059795811231424606,0.0,0.0,0.0,-0.185429175188895,0.9826576316239375,0.0,0.0,0.0,0,0,0.0
0,1.8872293541567622,-0.061795398674996824,0.0,0.0,0.0,-0.19001468514738637,0.9817812482566265,0.0,0.0,0.0,0,0,0.0
0,1.8924351611667276,-0.06388888831061948,0.0,0.0,0.0,-0.1946995766523303,0.9808629235787248,0.0,0.0,0.0,0,0,0.0
0,1.8974810695572528,-0.06597426333162071,0.0,0.0,0.0,-0.1992540224730381,0.9799478733730249,0.0,0.0,0.0,0,0,0.0
0,1.9026494423116147,-0.06816668945886464,0.0,0.0,0.0,-0.20393270400470428,0.9789849090958092,0.0,0.0,0.0,0,0,0.0
0,1.9077660318903602,-0.07039506302529362,0.0,0.0,0.0,-0.20854431076807028,0.9780129193657262,0.0,0.0,0.0,0,0,0.0
0,1.912816644688702,-0.07265157380154803,0.0,0.0,0.0,-0.21311084920910967,0.977028027207701,0.0,0.0,0.0,0,0,0.0
0,1.918222097602985,-0.07512746039554381,0.0,0.0,0.0,-0.21798495075712082,0.9759521306106236,0.0,0.0,0.0,0,0,0.0
0,1.9229775189264775,-0.07736330791982586,0.0,0.0,0.0,-0.22228166827423712,0.9749824921244596,0.0,0.0,0.0,0,0,0.0
0,1.927896643803649,-0.0797292599466925,0.0,0.0,0.0,-0.22674039051929273,0.9739552327017699,0.0,0.0,0.0,0,0,0.0
0,1.9331290279957374,-0.0823051011666152,0.0,0.0,0.0,-0.23149897177169645,0.9728351484545813,0.0,0.0,0.0,0,0,0.0
0,1.938511472378882,-0.08502051284658314,0.0,0.0,0.0,-0.23640137525587124,0.9716554892435553,0.0,0.0,0.0,0,0,0.0
0,1.9429596475193394,-0.08732115641953127,0.0,0.0,0.0,-0.24046919437860928,0.9706567707253181,0.0,0.0,0.0,0,0,0.0
0,1.9477081756995376,-0.08982778736879142,0.0,0.0,0.0,-0.24481980784715235,0.96956859565772,0.0,0.0,0.0,0,0,0.0
0,1.9526323861879638,-0.09248390061964502,0.0,0.0,0.0,-0.24934778776288996,0.9684140027579903,0.0,0.0,0.0,0,0,0.0
0,1.9574307103821729,-0.09513029725481635,0.0,0.0,0.0,-0.25377728326627214,0.967262679161142,0.0,0.0,0.0,0,0,0.0
0,1.9622889056624218,-0.09786800555464571,0.0,0.0,0.0,-0.25827882332846447,0.9660704163879897,0.0,0.0,0.0,0,0,0.0
0,1.967080185753732,-0.10062711178533831,0.0,0.0,0.0,-0.2627364490895301,0.964867637720234,0.0,0.0,0.0,0,0,0.0
0,1.9718642792851906,-0.10344122219869971,0.0,0.0,0.0,-0.26721568130108786,0.9636367467395561,0.0,0.0,0.0,0,0,0.0
0,1.9766533020721935,-0.10631845038865151,0.0,0.0,0.0,-0.2717243875037327,0.962375112539659,0.0,0.0,0.0,0,0,0.0
0,1.9815058849617406,-0.1092960569423549,0.0,0.0,0.0,-0.27631285431666786,0.9610677429501918,0.0,0.0,0.0,0,0,0.0
0,1.9860787215822966,-0.11216242745582425,0.0,0.0,0.0,-0.2806566608605067,0.9598082301765445,0.0,0.0,0.0,0,0,0.0
0,1.9908199423159463,-0.11519442474434057,0.0,0.0,0.0,-0.28519645139648847,0.958469083544613,0.0,0.0,0.0,0,0,0.0
0,1.9958392973141916,-0.1184716445755496,0.0,0.0,0.0,-0.29002501954632093,0.9570190635703952,0.0,0.0,0.0,0,0,0.0
0,2.000023741190972,-0.12126431724398333,0.0,0.0,0.0,-0.2946455412547726,0.9556066162489051,0.0,0.0,0.0,0,0,0.0
0,2.004645865270551,-0.12441407475542204,0.0,0.0,0.0,-0.29977464572021334,0.9540100428105149,0.0,0.0,0.0,0,0,0.0
0,2.0092320904574335,-0.12761205823647298,0.0,0.0,0.0,-0.30489310062374286,0.9523865796996722,0.0,0.0,0.0,0,0,0.0
0,2.0137292534840814,-0.13082026385720855,0.0,0.0,0.0,-0.3099102368953567,0.9507658203087992,0.0,0.0,0.0,0,0,0.0
0,2.018740932477901,-0.1344758670419782,0.0,0.0,0.0,-0.31553379662933034,0.9489143392238735,0.0,0.0,0.0,0,0,0.0
0,2.0226823862613172,-0.13742295832855037,0.0,0.0,0.0,-0.3199550845272999,0.9474327120619851,0.0,0.0,0.0,0,0,0.0
0,2.0271243377256694,-0.14080932069658986,0.0,0.0,0.0,-0.3249561943698743,0.945729068888468,0.0,0.0,0.0,0,0,0.0
0,2.031487265314277,-0.14420892862991794,0.0,0.0,0.0,-0.3298995643152874,0.9440160366564667,0.0,0.0,0.0,0,0,0.0
0,2.0358211701119213,-0.14765940512979464,0.0,0.0,0.0,-0.33484163710562265,0.942274417598412,0.0,0.0,0.0,0,0,0.0
0,2.0400799900740973,-0.1511236417158853,0.0,0.0,0.0,-0.3397145084597079,0.9405286028303333,0.0,0.0,0.0,0,0,0.0
0,2.044496245523599,-0.15479255734555816,0.0,0.0,0.0,-0.34480096234869445,0.9386758206981866,0.0,0.0,0.0,0,0,0.0
0,2.048718303481148,-0.15837810360330984,0.0,0.0,0.0,-0.34969859835931383,0.9368622579149676,0.0,0.0,0.0,0,0,0.0
0,2.052828335809168,-0.16194306938976555,0.0,0.0,0.0,-0.3544841301302673,0.9350620308224411,0.0,0.0,0.0,0,0,0.0
0,2.0570474241194927,-0.16567891084752856,0.0,0.0,0.0,-0.35943109324842454,0.9331716290191437,0.0,0.0,0.0,0,0,0.0
0,2.0611198322942372,-0.16936255666212788,0.0,0.0,0.0,-0.36423613079026795,0.93130663104422,0.0,0.0,0.0,0,0,0.0
0,2.065173221658839,-0.17310568942267357,0.0,0.0,0.0,-0.3690547813607413,0.9294076438004883,0.0,0.0,0.0,0,0,0.0
0,2.069283753078346,-0.17698124583413655,0.0,0.0,0.0,-0.373978564501969,0.9274373473680293,0.0,0.0,0.0,0,0,0.0
0,2.0733059125656466,-0.18085488513093378,0.0,0.0,0.0,-0.3788350990810009,0.9254641903954406,0.0,0.0,0.0,0,0,0.0
0,2.077185862891696,-0.18467077639814097,0.0,0.0,0.0,-0.38356268797104276,0.9235148425425703,0.0,0.0,0.0,0,0,0.0
0,2.0811563828226345,-0.1886564431320465,0.0,0.0,0.0,-0.38843950167899094,0.9214742283620184,0.0,0.0,0.0,0,0,0.0
0,2.084958531638947,-0.1925546734111921,0.0,0.0,0.0,-0.39348725990415623,0.9193300692858464,0.0,0.0,0.0,0,0,0.0
0,2.088802960757439,-0.196583733589983,0.0,0.0,0.0,-0.3986372705575665,0.9171086775962888,0.0,0.0,0.0,0,0,0.0
0,2.0926102664448,-0.20066457384512548,0.0,0.0,0.0,-0.4037859690641041,0.9148534807207995,0.0,0.0,0.0,0,0,0.0
0,2.09635007759811,-0.20476451948348695,0.0,0.0,0.0,-0.40884304042018194,0.9126047163476537,0.0,0.0,0.0,0,0,0.0
0,2.100037003660507,-0.20889745490231318,0.0,0.0,0.0,-0.4138776675354279,0.9103325086557296,0.0,0.0,0.0,0,0,0.0
0,2.1043253361480754,-0.21381279779775314,0.0,0.0,0.0,-0.41979112135894114,0.9076207437185438,0.0,0.0,0.0,0,0,0.0
0,2.1073515154012976,-0.21737393284627368,0.0,0.0,0.0,-0.42397604064364103,0.9056734052406208,0.0,0.0,0.0,0,0,0.0
0,2.110897905188199,-0.22162617477944097,0.0,0.0,0.0,-0.4289227393555238,0.9033411778856056,0.0,0.0,0.0,0,0,0.0
0,2.114395982700677,-0.22591500127608355,0.0,0.0,0.0,-0.4338266413588553,0.9009963625050298,0.0,0.0,0.0,0,0,0.0
0,2.118218504104201,-0.2307070454003745,0.0,0.0,0.0,-0.43921744280176467,0.8983807867150091,0.0,0.0,0.0,0,0,0.0
0,2.1212829385915257,-0.23464460804283513,0.0,0.0,0.0,-0.4435937356081588,0.8962279831210355,0.0,0.0,0.0,0,0,0.0
0,2.1245995234973996,-0.23899301914231846,0.0,0.0,0.0,-0.44837834482327343,0.8938438677383996,0.0,0.0,0.0,0,0,0.0
0,2.1279479128468783,-0.24348185498073202,0.0,0.0,0.0,-0.4532454672019202,0.8913857450402228,0.0,0.0,0.0,0,0,0.0
0,2.1312511707732464,-0.24801245026031812,0.0,0.0,0.0,-0.4581050179030607,0.8888980777187205,0.0,0.0,0.0,0,0,0.0
0,2.134434783405529,-0.25248062283906475,0.0,0.0,0.0,-0.46284682935142113,0.8864382734061839,0.0,0.0,0.0,0,0,0.0
0,2.137680892740086,-0.2571410747018243,0.0,0.0,0.0,-0.46771999263876024,0.8838766930324603,0.0,0.0,0.0,0,0,0.0
0,2.1408501973393155,-0.2617998051514636,0.0,0.0,0.0,-0.4725405640138774,0.8813089216395388,0.0,0.0,0.0,0,0,0.0
0,2.143877859106875,-0.2663565735932765,0.0,0.0,0.0,-0.47719604028047286,0.8787968702383033,0.0,0.0,0.0,0,0,0.0
0,2.146887544915325,-0.270991944262052,0.0,0.0,0.0,-0.48188395751467294,0.8762350435185737,0.0,0.0,0.0,0,0,0.0
0,2.1498571456063846,-0.27567436323853406,0.0,0.0,0.0,-0.4865732784121475,0.8736397682885405,0.0,0.0,0.0,0,0,0.0
0,2.152765017873305,-0.2803699888275115,0.0,0.0,0.0,-0.49123044464465715,0.8710296494690708,0.0,0.0,0.0,0,0,0.0
0,2.1556417764679163,-0.28512813240246604,0.0,0.0,0.0,-0.4959050379668745,0.8683767577031716,0.0,0.0,0.0,0,0,0.0
0,2.158469273469152,-0.28992040453401685,0.0,0.0,0.0,-0.5005686855363387,0.8656968239865629,0.0,0.0,0.0,0,0,0.0
0,2.161240561090695,-0.29473500985479756,0.0,0.0,0.0,-0.5046748621706544,0.8633094946153616,0.0,0.0,0.0,0,0,0.0
0,2.163961211808643,-0.2995672400939263,0.0,0.0,0.0,-0.5087624872881191,0.8609069238474077,0.0,0.0,0.0,0,0,0.0
0,2.166639399392664,-0.3044313757925884,0.0,0.0,0.0,-0.5127917969403761,0.8585130010609392,0.0,0.0,0.0,0,0,0.0
0,2.1693539489138787,-0.30947282850082247,0.0,0.0,0.0,-0.5169349323667235,0.8560246933932519,0.0,0.0,0.0,0,0,0.0
0,2.17187435915318,-0.3142641019994325,0.0,0.0,0.0,-0.5208411590198274,0.8536536107057023,0.0,0.0,0.0,0,0,0.0
0,2.174451519080026,-0.31927384775116213,0.0,0.0,0.0,-0.5248581951667503,0.8511896821310169,0.0,0.0,0.0,0,0,0.0
0,2.1769069408637636,-0.3241596052673366,0.0,0.0,0.0,-0.5288021370052198,0.8487451324742386,0.0,0.0,0.0,0,0,0.0
0,2.179341844009825,-0.3291187075731694,0.0,0.0,0.0,-0.5327084474523957,0.8462988302088443,0.0,0.0,0.0,0,0,0.0
0,2.1817555891640845,-0.3341514585462682,0.0,0.0,0.0,-0.5366435836787739,0.843809021103948,0.0,0.0,0.0,0,0,0.0
0,2.184104891550127,-0.3391691641064989,0.0,0.0,0.0,-0.5405192085066156,0.841331673738355,0.0,0.0,0.0,0,0,0.0
0,2.1864070813265317,-0.344206402199708,0.0,0.0,0.0,-0.5443819674102692,0.8388374535978497,0.0,0.0,0.0,0,0,0.0
0,2.188672400311215,-0.3492860099364791,0.0,0.0,0.0,-0.5482494950470707,0.8363148277895305,0.0,0.0,0.0,0,0,0.0
0,2.191210037429412,-0.35512050690058905,0.0,0.0,0.0,-0.5526348613944793,0.8334234877728757,0.0,0.0,0.0,0,0,0.0
0,2.19305998627522,-0.3594990809935543,0.0,0.0,0.0,-0.5559011832366462,0.8312483831419444,0.0,0.0,0.0,0,0,0.0
0,2.1951930714615617,-0.3646604231759813,0.0,0.0,0.0,-0.5597278841926226,0.8286764722479153,0.0,0.0,0.0,0,0,0.0
0,2.19726316417461,-0.36980318613649066,0.0,0.0,0.0,-0.5635010068194456,0.8261153765143651,0.0,0.0,0.0,0,0,0.0
0,2.1992764304628145,-0.37493951955215854,0.0,0.0,0.0,-0.5672441510699627,0.8235496785725299,0.0,0.0,0.0,0,0,0.0
0,2.201281359434493,-0.3801944635028197,0.0,0.0,0.0,-0.5710482886134336,0.8209164708249365,0.0,0.0,0.0,0,0,0.0
0,2.203190588220698,-0.385341065397277,0.0,0.0,0.0,-0.5747438270460206,0.8183333876070888,0.0,0.0,0.0,0,0,0.0
0,2.205080747637614,-0.3905806777236441,0.0,0.0,0.0,-0.5784818163884973,0.8156952789540128,0.0,0.0,0.0,0,0,0.0
0,2.206936595318707,-0.39587649154512483,0.0,0.0,0.0,-0.5822386892777083,0.8130179018374541,0.0,0.0,0.0,0,0,0.0
0,2.20874264941052,-0.40118669484339686,0.0,0.0,0.0,-0.5859845935733534,0.810322192769439,0.0,0.0,0.0,0,0,0.0
0,2.2104778517015222,-0.4064473656086548,0.0,0.0,0.0,-0.5896718514483105,0.8076429332381493,0.0,0.0,0.0,0,0,0.0
0,2.212146550694677,-0.4116658532576804,0.0,0.0,0.0,-0.5933066797869274,0.804976511284778,0.0,0.0,0.0,0,0,0.0
0,2.213793752205841,-0.41698185448646535,0.0,0.0,0.0,-0.5958556880673214,0.8030915259158317,0.0,0.0,0.0,0,0,0.0
0,2.2153989392489537,-0.42228087480782533,0.0,0.0,0.0,-0.598385680122014,0.8012081988003584,0.0,0.0,0.0,0,0,0.0
0,2.216987324956206,-0.42764617884056827,0.0,0.0,0.0,-0.6009364366282007,0.799296815415025,0.0,0.0,0.0,0,0,0.0
0,2.218525012220104,-0.43296455826045815,0.0,0.0,0.0,-0.6034541641267717,0.797397687354346,0.0,0.0,0.0,0,0,0.0
0,2.2200649484579476,-0.4384194295235693,0.0,0.0,0.0,-0.6060256395323602,0.7954451107583689,0.0,0.0,0.0,0,0,0.0
0,2.2215495675791845,-0.44381127705235146,0.0,0.0,0.0,-0.6085566406602798,0.7935104379327818,0.0,0.0,0.0,0,0,0.0
0,2.223010742550477,-0.4492532180125636,0.0,0.0,0.0,-0.6111004879740117,0.7915530263967947,0.0,0.0,0.0,0,0,0.0
0,2.224363145527241,-0.4544223230599297,0.0,0.0,0.0,-0.6135068742267222,0.7896893789817341,0.0,0.0,0.0,0,0,0.0
0,2.2257238103923336,-0.45975537360944785,0.0,0.0,0.0,-0.6159335586128821,0.7877981031802954,0.0,0.0,0.0,0,0,0.0
0,2.227056203481975,-0.46511507726491025,0.0,0.0,0.0,-0.6183470830950807,0.7859051372957205,0.0,0.0,0.0,0,0,0.0
0,2.228374967932272,-0.47056247697754094,0.0,0.0,0.0,-0.6207904608617358,0.7839765326226759,0.0,0.0,0.0,0,0,0.0
0,2.229639525764519,-0.47593192208072055,0.0,0.0,0.0,-0.6231889332602865,0.7820713224904147,0.0,0.0,0.0,0,0,0.0
0,2.2308889986299856,-0.48138686729068525,0.0,0.0,0.0,-0.6256161579634821,0.7801310293117506,0.0,0.0,0.0,0,0,0.0
0,2.23214144375548,-0.48701528996021176,0.0,0.0,0.0,-0.6281107420011995,0.7781239591367833,0.0,0.0,0.0,0,0,0.0
0,2.2332648452370405,-0.4922207924801499,0.0,0.0,0.0,-0.6304110253248544,0.7762615146642694,0.0,0.0,0.0,0,0,0.0
0,2.234419222825756,-0.49772771336893995,0.0,0.0,0.0,-0.6328354413015143,0.7742863192855197,0.0,0.0,0.0,0,0,0.0
0,2.2355203650042754,-0.5031493255263003,0.0,0.0,0.0,-0.6352131878123952,0.7723368475148746,0.0,0.0,0.0,0,0,0.0
0,2.2365865996249155,-0.5085697437796453,0.0,0.0,0.0,-0.6375902254970874,0.7703756903943512,0.0,0.0,0.0,0,0,0.0
0,2.2376408766102487,-0.5141094439826883,0.0,0.0,0.0,-0.640010431638615,0.7683662195813619,0.0,0.0,0.0,0,0,0.0
0,2.2386489908480063,-0.5195942438634865,0.0,0.0,0.0,-0.6423976061635277,0.7663715258250199,0.0,0.0,0.0,0,0,0.0
0,2.2396019212256806,-0.5249665936604668,0.0,0.0,0.0,-0.6447428828068451,0.7643995127352704,0.0,0.0,0.0,0,0,0.0
0,2.240547225445339,-0.5304926702801421,0.0,0.0,0.0,-0.6471463880265051,0.7623657602911138,0.0,0.0,0.0,0,0,0.0
0,2.2414372242605727,-0.5359001015790408,0.0,0.0,0.0,-0.6494896055891509,0.7603704703837789,0.0,0.0,0.0,0,0,0.0
0,2.2423867791019494,-0.5418995991035332,0.0,0.0,0.0,-0.6504798215977787,0.7595235359711521,0.0,0.0,0.0,0,0,0.0
0,2.2431635683784483,-0.5468917476421611,0.0,0.0,0.0,-0.651302596678101,0.7588181123038399,0.0,0.0,0.0,0,0,0.0
0,2.2439990570186903,-0.5523388258463555,0.0,0.0,0.0,-0.6521991775283639,0.75804764548894,0.0,0.0,0.0,0,0,0.0
0,2.2448338838215895,-0.5578688040961683,0.0,0.0,0.0,-0.6530815646964128,0.7572875740784905,0.0,0.0,0.0,0,0,0.0
0,2.245654844768442,-0.5633940955073332,0.0,0.0,0.0,-0.6539620123066334,0.7565273864572641,0.0,0.0,0.0,0,0,0.0
0,2.2464592797808542,-0.5688961836199693,0.0,0.0,0.0,-0.6548381177061974,0.7557691708445141,0.0,0.0,0.0,0,0,0.0
0,2.2472514813403963,-0.5744037264626438,0.0,0.0,0.0,-0.6557147781479447,0.7550086951276731,0.0,0.0,0.0,0,0,0.0
0,2.2480587279636612,-0.580109816519714,0.0,0.0,0.0,-0.6566218105220638,0.7542199930701433,0.0,0.0,0.0,0,0,0.0
0,2.2487909100554195,-0.5853765627502068,0.0,0.0,0.0,-0.657460427748936,0.7534890748671716,0.0,0.0,0.0,0,0,0.0
0,2.249536165573382,-0.590826223811166,0.0,0.0,0.0,-0.6583270479906685,0.752732022624182,0.0,0.0,0.0,0,0,0.0
0,2.2503301649816736,-0.5967335668456983,0.0,0.0,0.0,-0.6592651728251127,0.7519105212057312,0.0,0.0,0.0,0,0,0.0
0,2.2510091466713815,-0.6018824098237723,0.0,0.0,0.0,-0.660085206171251,0.7511907351624201,0.0,0.0,0.0,0,0,0.0
0,2.251729804105169,-0.6074408433564821,0.0,0.0,0.0,-0.6609693388402103,0.7504129084131851,0.0,0.0,0.0,0,0,0.0
0,2.252430136684555,-0.6129441303576587,0.0,0.0,0.0,-0.6618435324751877,0.7496420069078075,0.0,0.0,0.0,0,0,0.0
0,2.2531114421532847,-0.6183994187156437,0.0,0.0,0.0,-0.6627173007116356,0.748869667791054,0.0,0.0,0.0,0,0,0.0
0,2.2537876331144653,-0.6239184016430602,0.0,0.0,0.0,-0.6636000991005829,0.7480875005463575,0.0,0.0,0.0,0,0,0.0
0,2.2544652821353437,-0.6295594925526438,0.0,0.0,0.0,-0.664501217670148,0.7472871815539797,0.0,0.0,0.0,0,0,0.0
0,2.2551158480369904,-0.6350876230642643,0.0,0.0,0.0,-0.6638066536498015,0.7479042228589518,0.0,0.0,0.0,0,0,0.0
0,2.255760086807394,-0.6404757179575097,0.0,0.0,0.0,-0.6631289831464224,0.7485051447459742,0.0,0.0,0.0,0,0,0.0
0,2.2564442317680324,-0.6461109545272898,0.0,0.0,0.0,-0.6624194923012332,0.7491331098138544,0.0,0.0,0.0,0,0,0.0
0,2.2571083068905886,-0.6514955729288816,0.0,0.0,0.0,-0.6617405074927478,0.7497329529527434,0.0,0.0,0.0,0,0,0.0
0,2.2578005873394695,-0.6570263770519369,0.0,0.0,0.0,-0.661042366370638,0.7503485789039034,0.0,0.0,0.0,0,0,0.0
0,2.2587809657286284,-0.6647422858479642,0.0,0.0,0.0,-0.6600655401493621,0.7512080156037546,0.0,0.0,0.0,0,0,0.0
0,2.25921177826775,-0.668063780677326,0.0,0.0,0.0,-0.6596445575011668,0.7515777123884727,0.0,0.0,0.0,0,0,0.0
0,2.259929803971942,-0.6735514290830221,0.0,0.0,0.0,-0.6589484706173651,0.7521880835742053,0.0,0.0,0.0,0,0,0.0
0,2.2606666333564243,-0.6791028650124095,0.0,0.0,0.0,-0.6582398867806436,0.7528082434797094,0.0,0.0,0.0,0,0,0.0
0,2.261412714468683,-0.6846439770654,0.0,0.0,0.0,-0.6575318603434965,0.7534267400572007,0.0,0.0,0.0,0,0,0.0
0,2.262159544244104,-0.6901128742832362,0.0,0.0,0.0,-0.6568263237164085,0.7540418957015504,0.0,0.0,0.0,0,0,0.0
0,2.2630212546039434,-0.6963360927846128,0.0,0.0,0.0,-0.6560197265037851,0.7547437435566451,0.0,0.0,0.0,0,0,0.0
0,2.263683272404556,-0.7010430370856944,0.0,0.0,0.0,-0.6554089745385331,0.7552741727971032,0.0,0.0,0.0,0,0,0.0
0,2.2644751927406186,-0.7066082894444106,0.0,0.0,0.0,-0.6532037878881636,0.7571821521196568,0.0,0.0,0.0,0,0,0.0
0,2.265297633306796,-0.7121558574046445,0.0,0.0,0.0,-0.6509982104096691,0.7590792646643749,0.0,0.0,0.0,0,0,0.0
0,2.2661302439825466,-0.7175552678990308,0.0,0.0,0.0,-0.6488443488610862,0.7609211594843668,0.0,0.0,0.0,0,0,0.0
0,2.266998237795424,-0.7229798235389717,0.0,0.0,0.0,-0.646676669877612,0.7627642392220562,0.0,0.0,0.0,0,0,0.0
0,2.2679206981649283,-0.7285417166600388,0.0,0.0,0.0,-0.6444466052040824,0.76464931376477,0.0,0.0,0.0,0,0,0.0
0,2.2688702178577462,-0.7340666673259777,0.0,0.0,0.0,-0.6422237186922587,0.7665172503923747,0.0,0.0,0.0,0,0,0.0
0,2.269833030633893,-0.7394804453014466,0.0,0.0,0.0,-0.6400389391681007,0.7683424733467311,0.0,0.0,0.0,0,0,0.0
0,2.2710610560297244,-0.7461644951139277,0.0,0.0,0.0,-0.637331586531016,0.7705896760337878,0.0,0.0,0.0,0,0,0.0
0,2.2718756512648506,-0.750429195641797,0.0,0.0,0.0,-0.6355933738499291,0.7720240042369566,0.0,0.0,0.0,0,0,0.0
0,2.2729407067738046,-0.7558719144542113,0.0,0.0,0.0,-0.6333683950023143,0.7738504223764385,0.0,0.0,0.0,0,0,0.0
0,2.2740513893003644,-0.7613793693291186,0.0,0.0,0.0,-0.6311090239798427,0.7756941406580369,0.0,0.0,0.0,0,0,0.0
0,2.27515816658599,-0.7667069275902133,0.0,0.0,0.0,-0.6289051623042821,0.777482023475157,0.0,0.0,0.0,0,0,0.0
0,2.276320917499822,-0.7721486467062803,0.0,0.0,0.0,-0.6266409530840803,0.7793081007649513,0.0,0.0,0.0,0,0,0.0
0,2.2775215185119073,-0.7776117761404805,0.0,0.0,0.0,-0.6243596241307874,0.7811370300755572,0.0,0.0,0.0,0,0,0.0
0,2.278738081611728,-0.7829971192909235,0.0,0.0,0.0,-0.6221026105561311,0.7829357201834941,0.0,0.0,0.0,0,0,0.0
0,2.2800083525536636,-0.7884729606695144,0.0,0.0,0.0,-0.6197857981573011,0.7847710267348798,0.0,0.0,0.0,0,0,0.0
0,2.281290681993677,-0.7938560280112453,0.0,0.0,0.0,-0.6174997821055079,0.786571051526593,0.0,0.0,0.0,0,0,0.0
0,2.282620241015367,-0.7992967126459153,0.0,0.0,0.0,-0.6151807281960281,0.7883861183812184,0.0,0.0,0.0,0,0,0.0
0,2.2839667355093747,-0.8046692786992232,0.0,0.0,0.0,-0.611531967500823,0.7912197246811864,0.0,0.0,0.0,0,0,0.0
0,2.2855356027250893,-0.8106925602485155,0.0,0.0,0.0,-0.6074160344670163,0.7943838877220286,0.0,0.0,0.0,0,0,0.0
0,2.286809965618513,-0.8153848715737295,0.0,0.0,0.0,-0.6041820031865273,0.7968463509519983,0.0,0.0,0.0,0,0,0.0
0,2.2883434237322695,-0.8208549808857213,0.0,0.0,0.0,-0.6003937955246909,0.7997045018601906,0.0,0.0,0.0,0,0,0.0
0,2.289951977763421,-0.8263902944749494,0.0,0.0,0.0,-0.5965362131455483,0.8025861613596194,0.0,0.0,0.0,0,0,0.0
0,2.2914444679142307,-0.8313475549375393,0.0,0.0,0.0,-0.5930598306314677,0.8051583926727552,0.0,0.0,0.0,0,0,0.0
0,2.2931061830396207,-0.8366987861958329,0.0,0.0,0.0,-0.5892889931180886,0.8079223246017339,0.0,0.0,0.0,0,0,0.0
0,2.2948215846728406,-0.8420458490055983,0.0,0.0,0.0,-0.5854970319503031,0.8106745497284257,0.0,0.0,0.0,0,0,0.0
0,2.296534444395528,-0.847217857248649,0.0,0.0,0.0,-0.5818061821481626,0.8133274656706111,0.0,0.0,0.0,0,0,0.0
0,2.2983336534800336,-0.852489532714543,0.0,0.0,0.0,-0.5780202648856021,0.8160224098525594,0.0,0.0,0.0,0,0,0.0
0,2.300170815943945,-0.8577130828778166,0.0,0.0,0.0,-0.57423759983572,0.8186886947643234,0.0,0.0,0.0,0,0,0.0
0,2.302056360148056,-0.8629197163906714,0.0,0.0,0.0,-0.5704424086640879,0.8213376031800284,0.0,0.0,0.0,0,0,0.0
0,2.3041165630389293,-0.8684482577277604,0.0,0.0,0.0,-0.5663854038953943,0.8241405063787673,0.0,0.0,0.0,0,0,0.0
0,2.305995124831575,-0.87334133908482,0.0,0.0,0.0,-0.5627533100729747,0.8266248919563882,0.0,0.0,0.0,0,0,0.0
0,2.308014793156594,-0.8784666885860747,0.0,0.0,0.0,-0.5589165619107826,0.829223900295831,0.0,0.0,0.0,0,0,0.0
0,2.310120295840255,-0.8836680057312929,0.0,0.0,0.0,-0.5549961657236216,0.8318529052855909,0.0,0.0,0.0,0,0,0.0
0,2.312359560919944,-0.8890530307290765,0.0,0.0,0.0,-0.5508873814592714,0.8345795905418172,0.0,0.0,0.0,0,0,0.0
0,2.314420987996589,-0.8938756721299005,0.0,0.0,0.0,-0.5471809206025438,0.8370143607660221,0.0,0.0,0.0,0,0,0.0
0,2.3166516041543,-0.8989686623046147,0.0,0.0,0.0,-0.5432398821310687,0.8395775309417366,0.0,0.0,0.0,0,0,0.0
0,2.318934295671049,-0.9040499993612477,0.0,0.0,0.0,-0.539279386347408,0.842126916480386,0.0,0.0,0.0,0,0,0.0
0,2.321261095023461,-0.9091016676943204,0.0,0.0,0.0,-0.5342576216447458,0.8453217101876065,0.0,0.0,0.0,0,0,0.0
0,2.32365496716458,-0.9141402358835536,0.0,0.0,0.0,-0.5292018972531622,0.8484959351367887,0.0,0.0,0.0,0,0,0.0
0,2.326123827161702,-0.9191804946415348,0.0,0.0,0.0,-0.5240962294888023,0.8516590528114056,0.0,0.0,0.0,0,0,0.0
0,2.3285815432876094,-0.9240490792573206,0.0,0.0,0.0,-0.5191412948880744,0.8546884320861804,0.0,0.0,0.0,0,0,0.0
0,2.331150321148589,-0.9289940474218802,0.0,0.0,0.0,-0.5140605119380087,0.8577539216267288,0.0,0.0,0.0,0,0,0.0
0,2.333773293987882,-0.9339001223114572,0.0,0.0,0.0,-0.5089700056257231,0.8607842548358743,0.0,0.0,0.0,0,0,0.0
0,2.3364416680409645,-0.9387519696029408,0.0,0.0,0.0,-0.503901101281326,0.863761356004925,0.0,0.0,0.0,0,0,0.0
0,2.3391929431130887,-0.9436181732287726,0.0,0.0,0.0,-0.4987660934119891,0.8667366290070722,0.0,0.0,0.0,0,0,0.0
0,2.342026673081852,-0.9484942093732828,0.0,0.0,0.0,-0.49357977792391033,0.8697005247926343,0.0,0.0,0.0,0,0,0.0
0,2.3448100574827913,-0.9531545517669279,0.0,0.0,0.0,-0.48857123056722856,0.872524012656399,0.0,0.0,0.0,0,0,0.0
0,2.3477312955975305,-0.9579203526907043,0.0,0.0,0.0,-0.4833967052826494,0.875401408110519,0.0,0.0,0.0,0,0,0.0
0,2.3506855146451007,-0.9626142912870128,0.0,0.0,0.0,-0.4782551856607199,0.878220916050529,0.0,0.0,0.0,0,0,0.0
0,2.353687500084675,-0.9672623019136332,0.0,0.0,0.0,-0.47310937395288166,0.881003700490476,0.0,0.0,0.0,0,0,0.0
0,2.3567987868357383,-0.971958070917937,0.0,0.0,0.0,-0.4678525439750404,0.8838065382741196,0.0,0.0,0.0,0,0,0.0
0,2.3599041393227482,-0.9765257400659574,0.0,0.0,0.0,-0.46267877921897943,0.8865259992016223,0.0,0.0,0.0,0,0,0.0
0,2.3630504032729718,-0.9810391938307693,0.0,0.0,0.0,-0.45750939934771917,0.8892047849109277,0.0,0.0,0.0,0,0,0.0
0,2.366277347489787,-0.9855553653202085,0.0,0.0,0.0,-0.4522682005717177,0.8918819847668303,0.0,0.0,0.0,0,0,0.0
0,2.36968816878178,-0.9902120122236325,0.0,0.0,0.0,-0.44680114306901864,0.8946332983699066,0.0,0.0,0.0,0,0,0.0
0,2.3729468211906792,-0.9945485450824902,0.0,0.0,0.0,-0.44164820454661635,0.897188309899739,0.0,0.0,0.0,0,0,0.0
0,2.37631532452571,-0.998925508193424,0.0,0.0,0.0,-0.43636998335197785,0.8997673241618604,0.0,0.0,0.0,0,0,0.0
0,2.3797809872515723,-1.0033208914522296,0.0,0.0,0.0,-0.43100544917520983,0.9023493241429704,0.0,0.0,0.0,0,0,0.0
0,2.3832240283635544,-1.0075822303524575,0.0,0.0,0.0,-0.42574005371678547,0.9048455153567534,0.0,0.0,0.0,0,0,0.0
0,2.386785610367325,-1.0118866832726212,0.0,0.0,0.0,-0.4200839826429509,0.9074852326770044,0.0,0.0,0.0,0,0,0.0
0,2.3907495144694693,-1.0165574159552688,0.0,0.0,0.0,-0.41386327350363894,0.9103390526857849,0.0,0.0,0.0,0,0,0.0
0,2.3940524273643935,-1.0203430163319411,0.0,0.0,0.0,-0.4087903407122438,0.9126283237662348,0.0,0.0,0.0,0,0,0.0
0,2.3976785415514694,-1.0244068385334644,0.0,0.0,0.0,-0.40328959463406877,0.9150724030697727,0.0,0.0,0.0,0,0,0.0
0,2.4014585913784265,-1.0285418776862445,0.0,0.0,0.0,-0.39761601631986165,0.9175519078318803,0.0,0.0,0.0,0,0,0.0
0,2.4053062668936374,-1.0326476223907992,0.0,0.0,0.0,-0.39190234664873785,0.9200068210025469,0.0,0.0,0.0,0,0,0.0
0,2.4091045897512253,-1.0366009897290758,0.0,0.0,0.0,-0.3863472371215642,0.9223534096909567,0.0,0.0,0.0,0,0,0.0
0,2.4135255420332338,-1.0410926911899763,0.0,0.0,0.0,-0.3799438731964596,0.9250095422321181,0.0,0.0,0.0,0,0,0.0
0,2.4169736954459844,-1.0445002110589792,0.0,0.0,0.0,-0.37500599084727804,0.9270223874473859,0.0,0.0,0.0,0,0,0.0
0,2.420980120564266,-1.0483758474583778,0.0,0.0,0.0,-0.3693496803479866,0.9292904893663984,0.0,0.0,0.0,0,0,0.0
0,2.4249826292286825,-1.0521543571763836,0.0,0.0,0.0,-0.3637508750650965,0.9314962699277848,0.0,0.0,0.0,0,0,0.0
0,2.4290615402424693,-1.0559131910284145,0.0,0.0,0.0,-0.3581176809484243,0.9336764571264088,0.0,0.0,0.0,0,0,0.0
0,2.43322761329082,-1.0596602977113763,0.0,0.0,0.0,-0.35241895750414315,0.9358423362894484,0.0,0.0,0.0,0,0,0.0
0,2.4377764992552007,-1.0636524693885334,0.0,0.0,0.0,-0.3462489249405594,0.9381426767701738,0.0,0.0,0.0,0,0,0.0
0,2.4420952160271563,-1.0673431021507975,0.0,0.0,0.0,-0.3404438581315093,0.9402648453816258,0.0,0.0,0.0,0,0,0.0
0,2.445939122593742,-1.0705466152398702,0.0,0.0,0.0,-0.33532604716083597,0.9421021399484711,0.0,0.0,0.0,0,0,0.0
0,2.4501537218599165,-1.073982088769833,0.0,0.0,0.0,-0.32975353131473306,0.9440670572504176,0.0,0.0,0.0,0,0,0.0
0,2.454547722169162,-1.0774781902925836,0.0,0.0,0.0,-0.32398833160937784,0.9460610767709302,0.0,0.0,0.0,0,0,0.0
0,2.4589034179855545,-1.0808578602585388,0.0,0.0,0.0,-0.31831618404885653,0.947984602708596,0.0,0.0,0.0,0,0,0.0
0,2.463299020918113,-1.0841849128448056,0.0,0.0,0.0,-0.31263295917971173,0.9498740089267296,0.0,0.0,0.0,0,0,0.0
0,2.46792863638219,-1.087602646014077,0.0,0.0,0.0,-0.3066804042069062,0.9518125496522352,0.0,0.0,0.0,0,0,0.0
0,2.472331508940141,-1.0907685963189524,0.0,0.0,0.0,-0.3010597897875504,0.9536052658060755,0.0,0.0,0.0,0,0,0.0
0,2.4768865975070486,-1.0939631458808468,0.0,0.0,0.0,-0.29569444588805455,0.955282573205937,0.0,0.0,0.0,0,0,0.0
0,2.481500920389544,-1.0971224456607336,0.0,0.0,0.0,-0.29031020250252004,0.9569325923611055,0.0,0.0,0.0,0,0,0.0
0,2.48605956656881,-1.1001687874390527,0.0,0.0,0.0,-0.28502235829391054,0.9585208684596166,0.0,0.0,0.0,0,0,0.0
0,2.490667159493675,-1.1031747742751417,0.0,0.0,0.0,-0.27974092300646586,0.9600755261933774,0.0,0.0,0.0,0,0,0.0
0,2.4954104694489,-1.1061953723996316,0.0,0.0,0.0,-0.2743336134128699,0.9616345816118709,0.0,0.0,0.0,0,0,0.0
0,2.500334705355528,-1.109253838645957,0.0,0.0,0.0,-0.2687505558129848,0.9632098103477829,0.0,0.0,0.0,0,0,0.0
0,2.504922003468815,-1.1120298019603088,0.0,0.0,0.0,-0.263607123266571,0.9646301283720734,0.0,0.0,0.0,0,0,0.0
0,2.5097071112991958,-1.1148561468289715,0.0,0.0,0.0,-0.25826810445766357,0.9660732820132463,0.0,0.0,0.0,0,0,0.0
0,2.514471363435649,-1.1175995479645675,0.0,0.0,0.0,-0.252978764860521,0.9674718313882039,0.0,0.0,0.0,0,0,0.0
0,2.519260035651905,-1.1202876718551085,0.0,0.0,0.0,-0.24772559920111947,0.9688302366774306,0.0,0.0,0.0,0,0,0.0
0,2.524245734882725,-1.123015671492549,0.0,0.0,0.0,-0.24228141457746188,0.9702060173748378,0.0,0.0,0.0,0,0,0.0
0,2.5290778655446253,-1.1255895561765814,0.0,0.0,0.0,-0.2370580134837613,0.9714954957400126,0.0,0.0,0.0,0,0,0.0
0,2.5339723884598055,-1.1281294471641434,0.0,0.0,0.0,-0.23179699070225782,0.9727641826780925,0.0,0.0,0.0,0,0,0.0
0,2.538984613442871,-1.1306619391398687,0.0,0.0,0.0,-0.22643225448930257,0.974026916531002,0.0,0.0,0.0,0,0,0.0
0,2.5443850478114816,-1.1333162656932356,0.0,0.0,0.0,-0.22068780753268807,0.9753444989368706,0.0,0.0,0.0,0,0,0.0
0,2.5489853218689027,-1.1355103723844817,0.0,0.0,0.0,-0.21581633723221882,0.9764339755373475,0.0,0.0,0.0,0,0,0.0
0,2.5540486983353454,-1.1378635980544805,0.0,0.0,0.0,-0.2104734409172809,0.9775995758327843,0.0,0.0,0.0,0,0,0.0
0,2.5591244712912626,-1.1401554184370393,0.0,0.0,0.0,-0.20514406586142914,0.9787317876935651,0.0,0.0,0.0,0,0,0.0
0,2.5641109483077567,-1.1423418240770524,0.0,0.0,0.0,-0.19992788534207911,0.9798106146917599,0.0,0.0,0.0,0,0,0.0
0,2.569312190256489,-1.1445566393475244,0.0,0.0,0.0,-0.19450603635184194,0.980901321144332,0.0,0.0,0.0,0,0,0.0
0,2.574478292931717,-1.146689301819258,0.0,0.0,0.0,-0.1891397045180351,0.98195018823504,0.0,0.0,0.0,0,0,0.0
0,2.5795760359136484,-1.1487287866424978,0.0,0.0,0.0,-0.18386235854143754,0.9829519993934495,0.0,0.0,0.0,0,0,0.0
0,2.5847783247333833,-1.1507455378576346,0.0,0.0,0.0,-0.17929442749770844,0.9837954605853134,0.0,0.0,0.0,0,0,0.0
0,2.589933127582713,-1.1526889896644859,0.0,0.0,0.0,-0.17479534317589263,0.9846047877214603,0.0,0.0,0.0,0,0,0.0
0,2.595155724754317,-1.1546036517778153,0.0,0.0,0.0,-0.17024885115250907,0.9854011004059468,0.0,0.0,0.0,0,0,0.0
0,2.6004335190551804,-1.1564834647909048,0.0,0.0,0.0,-0.16566594390271933,0.9861819279579306,0.0,0.0,0.0,0,0,0.0
0,2.6057633645242397,-1.158326156671195,0.0,0.0,0.0,-0.161077358944981,0.9869417837113341,0.0,0.0,0.0,0,0,0.0
0,2.61093964334833,-1.1600620211059156,0.0,0.0,0.0,-0.1566317565338056,0.9876570724928438,0.0,0.0,0.0,0,0,0.0
0,2.6164156263083127,-1.1618436947995179,0.0,0.0,0.0,-0.15196528084349456,0.988385832262967,0.0,0.0,0.0,0,0,0.0
0,2.6215157915451606,-1.1634499769927582,0.0,0.0,0.0,-0.1476291525138324,0.9890427863990756,0.0,0.0,0.0,0,0,0.0
0,2.626783767182578,-1.1650584592562732,0.0,0.0,0.0,-0.1431595517819195,0.9896996224782547,0.0,0.0,0.0,0,0,0.0
0,2.6322339883470693,-1.1666688987406404,0.0,0.0,0.0,-0.138544797856171,0.9903561677431977,0.0,0.0,0.0,0,0,0.0
0,2.6374750693971225,-1.1681645599434172,0.0,0.0,0.0,-0.13414608167915465,0.9909615677563532,0.0,0.0,0.0,0,0,0.0
0,2.6428208415472922,-1.1696388870772463,0.0,0.0,0.0,-0.12966795199529604,0.9915574729814433,0.0,0.0,0.0,0,0,0.0
0,2.648237828469603,-1.1710803178468694,0.0,0.0,0.0,-0.12513857170155715,0.9921392734251044,0.0,0.0,0.0,0,0,0.0
0,2.6538550814531354,-1.172520233915711,0.0,0.0,0.0,-0.12047383930411311,0.9927165023526741,0.0,0.0,0.0,0,0,0.0
0,2.6590021132970203,-1.1737881721218302,0.0,0.0,0.0,-0.11620734817272797,0.9932249756377768,0.0,0.0,0.0,0,0,0.0
0,2.664402011444746,-1.1750692857435818,0.0,0.0,0.0,-0.11175165499421562,0.9937361659948046,0.0,0.0,0.0,0,0,0.0
0,2.669788193763163,-1.1762962196947133,0.0,0.0,0.0,-0.1073143066488759,0.9942251453209534,0.0,0.0,0.0,0,0,0.0
0,2.675267222661507,-1.1774929490247705,0.0,0.0,0.0,-0.10280726281223926,0.9947012952203567,0.0,0.0,0.0,0,0,0.0
0,2.680805624020071,-1.1786501524945299,0.0,0.0,0.0,-0.09826094629365263,0.9951606837257367,0.0,0.0,0.0,0,0,0.0
0,2.6861795931403987,-1.179721838986257,0.0,0.0,0.0,-0.0938558745994451,0.9955857947978031,0.0,0.0,0.0,0,0,0.0
0,2.6915432539789825,-1.1807421932739584,0.0,0.0,0.0,-0.08946499944811531,0.9959899667535556,0.0,0.0,0.0,0,0,0.0
0,2.6970768630410284,-1.1817443947011013,0.0,0.0,0.0,-0.08571413963931955,0.9963197710905326,0.0,0.0,0.0,0,0,0.0
0,2.7025594598165834,-1.1826947725762518,0.0,0.0,0.0,-0.0820016179077924,0.9966321962793017,0.0,0.0,0.0,0,0,0.0
0,2.707979532934329,-1.1835927651132816,0.0,0.0,0.0,-0.07838464918230649,0.996923190006415,0.0,0.0,0.0,0,0,0.0
0,2.713573635232237,-1.1844779274398627,0.0,0.0,0.0,-0.07466547715981763,0.9972086374076875,0.0,0.0,0.0,0,0,0.0
0,2.718962721468657,-1.1852894872446347,0.0,0.0,0.0,-0.07108575109447947,0.9974702080720675,0.0,0.0,0.0,0,0,0.0
0,2.724435115367894,-1.1860734606043246,0.0,0.0,0.0,-0.06745358400999396,0.9977224133015188,0.0,0.0,0.0,0,0,0.0
0,2.731166373712073,-1.186987807874201,0.0,0.0,0.0,-0.06301236744913732,0.9980127461853655,0.0,0.0,0.0,0,0,0.0
0,2.7355093061636118,-1.1875384095195007,0.0,0.0,0.0,-0.06014962458330658,0.9981893721446283,0.0,0.0,0.0,0,0,0.0
0,2.7410641056099645,-1.1882102995573247,0.0,0.0,0.0,-0.05648993558026446,0.9984031686538948,0.0,0.0,0.0,0,0,0.0
0,2.746546163972533,-1.1888326447351238,0.0,0.0,0.0,-0.052903266259960155,0.9985996417078407,0.0,0.0,0.0,0,0,0.0
0,2.7520026528871675,-1.1894124136982631,0.0,0.0,0.0,-0.04933546594232528,0.9987822644602043,0.0,0.0,0.0,0,0,0.0
0,2.7575760401550102,-1.189964362215182,0.0,0.0,0.0,-0.045693252646751184,0.9989555178598095,0.0,0.0,0.0,0,0,0.0
0,2.763169264461928,-1.1904771146802589,0.0,0.0,0.0,-0.04205529472060543,0.9991152847324292,0.0,0.0,0.0,0,0,0.0
0,2.7688805728013093,-1.1909587749651276,0.0,0.0,0.0,-0.038342337862673236,0.9992646622027743,0.0,0.0,0.0,0,0,0.0
0,2.7741405361370934,-1.1913630255488086,0.0,0.0,0.0,-0.03493069452241721,0.9993897370796748,0.0,0.0,0.0,0,0,0.0
0,2.7797207151610412,-1.1917535797743664,0.0,0.0,0.0,-0.03131283401680163,0.9995096329830124,0.0,0.0,0.0,0,0,0.0
0,2.785282490311367,-1.192102402896589,0.0,0.0,0.0,-0.027708229252039758,0.9996160533083271,0.0,0.0,0.0,0,0,0.0
0,2.7908077547136148,-1.1924089466166081,0.0,0.0,0.0,-0.024128456568466485,0.999708866412429,0.0,0.0,0.0,0,0,0.0
0,2.796372910799304,-1.1926777386563903,0.0,0.0,0.0,-0.020520901270295554,0.9997894241344298,0.0,0.0,0.0,0,0,0.0
0,2.801917231101208,-1.1929054314053344,0.0,0.0,0.0,-0.016927745716339385,0.99985671544725,0.0,0.0,0.0,0,0,0.0
