time,x,y,z,w0,w1,w2,w3,vx,vy,vz,roll,pitch,yaw
0,0.0,0.0,0.0,0.0,0.0,0.0,1.0,0.0,0.0,0.0,0,0,0.0
0,0.0,0.0,0.0,0.0,0.0,0.0,1.0,0.0,0.0,0.0,0,0,0.0
0,0.0,0.0,0.0,0.0,0.0,0.0,1.0,0.0,0.0,0.0,0,0,0.0
0,0.0,0.0,0.0,0.0,0.0,0.0,1.0,0.0,0.0,0.0,0,0,0.0
0,0.0,0.0,0.0,0.0,0.0,0.0,1.0,0.0,0.0,0.0,0,0,0.0
0,0.0,0.0,0.0,0.0,0.0,0.0,1.0,0.0,0.0,0.0,0,0,0.0
0,0.0,0.0,0.0,0.0,0.0,0.0,1.0,0.0,0.0,0.0,0,0,0.0
0,0.0,0.0,0.0,0.0,0.0,0.0,1.0,0.0,0.0,0.0,0,0,0.0
0,0.0,0.0,0.0,0.0,0.0,0.0,1.0,0.0,0.0,0.0,0,0,0.0
0,0.0,0.0,0.0,0.0,0.0,0.0,1.0,0.0,0.0,0.0,0,0,0.0
0,0.0,0.0,0.0,0.0,0.0,0.0,1.0,0.0,0.0,0.0,0,0,0.0
0,0.0,0.0,0.0,0.0,0.0,0.0,1.0,0.0,0.0,0.0,0,0,0.0
0,0.0,0.0,0.0,0.0,0.0,0.0,1.0,0.0,0.0,0.0,0,0,0.0
0,0.0,0.0,0.0,0.0,0.0,0.0,1.0,0.0,0.0,0.0,0,0,0.0
0,0.0,0.0,0.0,0.0,0.0,0.0,1.0,0.0,0.0,0.0,0,0,0.0
0,0.0,0.0,0.0,0.0,0.0,0.0,1.0,0.0,0.0,0.0,0,0,0.0
0,0.0,0.0,0.0,0.0,0.0,0.0,1.0,0.0,0.0,0.0,0,0,0.0
0,0.0,0.0,0.0,0.0,0.0,0.0,1.0,0.0,0.0,0.0,0,0,0.0
0,0.0,0.0,0.0,0.0,0.0,0.0,1.0,0.0,0.0,0.0,0,0,0.0
0,0.0,0.0,0.0,0.0,0.0,0.0,1.0,0.0,0.0,0.0,0,0,0.0
0,0.0,0.0,0.0,0.0,0.0,0.0,1.0,0.0,0.0,0.0,0,0,0.0
0,0.0,0.0,0.0,0.0,0.0,0.0,1.0,0.0,0.0,0.0,0,0,0.0
0,0.0,0.0,0.0,0.0,0.0,0.0,1.0,0.0,0.0,0.0,0,0,0.0
0,0.0,0.0,0.0,0.0,0.0,0.0,1.0,0.0,0.0,0.0,0,0,0.0
0,0.0,0.0,0.0,0.0,0.0,0.0,1.0,0.0,0.0,0.0,0,0,0.0
0,0.0,0.0,0.0,0.0,0.0,0.0,1.0,0.0,0.0,0.0,0,0,0.0
0,0.0,0.0,0.0,0.0,0.0,0.0,1.0,0.0,0.0,0.0,0,0,0.0
0,0.0,0.0,0.0,0.0,0.0,0.0,1.0,0.0,0.0,0.0,0,0,0.0
0,0.0,0.0,0.0,0.0,0.0,0.0,1.0,0.0,0.0,0.0,0,0,0.0
0,0.0,0.0,0.0,0.0,0.0,0.0,1.0,0.0,0.0,0.0,0,0,0.0
0,0.0,0.0,0.0,0.0,0.0,0.0,1.0,0.0,0.0,0.0,0,0,0.0
0,0.0,0.0,0.0,0.0,0.0,0.0,1.0,0.0,0.0,0.0,0,0,0.0
0,0.0,0.0,0.0,0.0,0.0,0.0,1.0,0.0,0.0,0.0,0,0,0.0
0,0.0,0.0,0.0,0.0,0.0,0.0,1.0,0.0,0.0,0.0,0,0,0.0
0,0.0,0.0,0.0,0.0,0.0,0.0,1.0,0.0,0.0,0.0,0,0,0.0
0,0.0,0.0,0.0,0.0,0.0,0.0,1.0,0.0,0.0,0.0,0,0,0.0
0,0.0,0.0,0.0,0.0,0.0,0.0,1.0,0.0,0.0,0.0,0,0,0.0
0,0.0,0.0,0.0,0.0,0.0,0.0,1.0,0.0,0.0,0.0,0,0,0.0
0,0.0,0.0,0.0,0.0,0.0,0.0,1.0,0.0,0.0,0.0,0,0,0.0
0,0.0,0.0,0.0,0.0,0.0,0.0,1.0,0.0,0.0,0.0,0,0,0.0
0,0.0,0.0,0.0,0.0,0.0,0.0,1.0,0.0,0.0,0.0,0,0,0.0
0,0.0,0.0,0.0,0.0,0.0,0.0,1.0,0.0,0.0,0.0,0,0,0.0
0,0.0,0.0,0.0,0.0,0.0,0.0,1.0,0.0,0.0,0.0,0,0,0.0
0,0.0,0.0,0.0,0.0,0.0,0.0,1.0,0.0,0.0,0.0,0,0,0.0
0,0.0,0.0,0.0,0.0,0.0,0.0,1.0,0.0,0.0,0.0,0,0,0.0
0,0.0,0.0,0.0,0.0,0.0,0.0,1.0,0.0,0.0,0.0,0,0,0.0
0,0.0,0.0,0.0,0.0,0.0,0.0,1.0,0.0,0.0,0.0,0,0,0.0
0,0.0,0.0,0.0,0.0,0.0,0.0,1.0,0.0,0.0,0.0,0,0,0.0
0,0.0,0.0,0.0,0.0,0.0,0.0,1.0,0.0,0.0,0.0,0,0,0.0
0,0.0055845578511555995,0.0,0.0,0.0,0.0,0.0,1.0,0.0,0.0,0.0,0,0,0.0
0,0.011112425062391493,0.0,0.0,0.0,0.0,0.0,1.0,0.0,0.0,0.0,0,0,0.0
0,0.016723208957248263,0.0,0.0,0.0,0.0,0.0,1.0,0.0,0.0,0.0,0,0,0.0
0,0.02223246627383762,0.0,0.0,0.0,0.0,0.0,1.0,0.0,0.0,0.0,0,0,0.0
0,0.0278652376598782,0.0,0.0,0.0,0.0,0.0,1.0,0.0,0.0,0.0,0,0,0.0
0,0.03375265333387587,0.0,0.0,0.0,0.0,0.0,1.0,0.0,0.0,0.0,0,0,0.0
0,0.03891004456414117,0.0,0.0,0.0,0.0,0.0,1.0,0.0,0.0,0.0,0,0,0.0
0,0.044495066006978355,0.0,0.0,0.0,0.0,0.0,1.0,0.0,0.0,0.0,0,0,0.0
0,0.050495266914367676,0.0,0.0,0.0,0.0,0.0,1.0,0.0,0.0,0.0,0,0,0.0
0,0.05556914541456434,0.0,0.0,0.0,0.0,0.0,1.0,0.0,0.0,0.0,0,0,0.0
0,0.06113992797003852,0.0,0.0,0.0,0.0,0.0,1.0,0.0,0.0,0.0,0,0,0.0
0,0.06668388843536377,0.0,0.0,0.0,0.0,0.0,1.0,0.0,0.0,0.0,0,0,0.0
0,0.07226851251390246,0.0,0.0,0.0,0.0,0.0,1.0,0.0,0.0,0.0,0,0,0.0
0,0.07780022091335721,0.0,0.0,0.0,0.0,0.0,1.0,0.0,0.0,0.0,0,0,0.0
0,0.08338901731703018,0.0,0.0,0.0,0.0,0.0,1.0,0.0,0.0,0.0,0,0,0.0
0,0.08891648716396756,0.0,0.0,0.0,0.0,0.0,1.0,0.0,0.0,0.0,0,0,0.0
0,0.09503000312381321,0.0,0.0,0.0,0.0,0.0,1.0,0.0,0.0,0.0,0,0,0.0
0,0.10001937548319499,0.0,0.0,0.0,0.0,0.0,1.0,0.0,0.0,0.0,0,0,0.0
0,0.10558618439568414,0.0,0.0,0.0,0.0,0.0,1.0,0.0,0.0,0.0,0,0,0.0
0,0.11113524436950684,0.0,0.0,0.0,0.0,0.0,1.0,0.0,0.0,0.0,0,0,0.0
0,0.11677000257703993,0.0,0.0,0.0,0.0,0.0,1.0,0.0,0.0,0.0,0,0,0.0
0,0.12234343422783746,0.0,0.0,0.0,0.0,0.0,1.0,0.0,0.0,0.0,0,0,0.0
0,0.12783653206295437,0.0,0.0,0.0,0.0,0.0,1.0,0.0,0.0,0.0,0,0,0.0
0,0.13337353865305582,0.0,0.0,0.0,0.0,0.0,1.0,0.0,0.0,0.0,0,0,0.0
0,0.13893259896172416,0.0,0.0,0.0,0.0,0.0,1.0,0.0,0.0,0.0,0,0,0.0
0,0.1445329189300537,0.0,0.0,0.0,0.0,0.0,1.0,0.0,0.0,0.0,0,0,0.0
0,0.15002012252807617,0.0,0.0,0.0,0.0,0.0,1.0,0.0,0.0,0.0,0,0,0.0
0,0.1563576857248942,0.0,0.0,0.0,0.0,0.0,1.0,0.0,0.0,0.0,0,0,0.0
0,0.16113142172495523,0.0,0.0,0.0,0.0,0.0,1.0,0.0,0.0,0.0,0,0,0.0
0,0.16667875978681776,0.0,0.0,0.0,0.0,0.0,1.0,0.0,0.0,0.0,0,0,0.0
0,0.17224080032772487,0.0,0.0,0.0,0.0,0.0,1.0,0.0,0.0,0.0,0,0,0.0
0,0.1777983374065823,0.0,0.0,0.0,0.0,0.0,1.0,0.0,0.0,0.0,0,0,0.0
0,0.18335296048058403,0.0,0.0,0.0,0.0,0.0,1.0,0.0,0.0,0.0,0,0,0.0
0,0.18928289413452148,0.0,0.0,0.0,0.0,0.0,1.0,0.0,0.0,0.0,0,0,0.0
0,0.1944679684109158,0.0,0.0,0.0,0.0,0.0,1.0,0.0,0.0,0.0,0,0,0.0
0,0.20006398359934488,0.0,0.0,0.0,0.0,0.0,1.0,0.0,0.0,0.0,0,0,0.0
0,0.20558403597937688,0.0,0.0,0.0,0.0,0.0,1.0,0.0,0.0,0.0,0,0,0.0
0,0.2111921707789103,0.0,0.0,0.0,0.0,0.0,1.0,0.0,0.0,0.0,0,0,0.0
0,0.21669818295372856,0.0,0.0,0.0,0.0,0.0,1.0,0.0,0.0,0.0,0,0,0.0
0,0.22224889861212835,0.0,0.0,0.0,0.0,0.0,1.0,0.0,0.0,0.0,0,0,0.0
0,0.22782080703311494,0.0,0.0,0.0,0.0,0.0,1.0,0.0,0.0,0.0,0,0,0.0
0,0.23336529731750486,0.0,0.0,0.0,0.0,0.0,1.0,0.0,0.0,0.0,0,0,0.0
0,0.23895111348893905,0.0,0.0,0.0,0.0,0.0,1.0,0.0,0.0,0.0,0,0,0.0
0,0.24447904692755804,0.0,0.0,0.0,0.0,0.0,1.0,0.0,0.0,0.0,0,0,0.0
0,0.25007810857560897,0.0,0.0,0.0,0.0,0.0,1.0,0.0,0.0,0.0,0,0,0.0
0,0.25562240017784965,0.0,0.0,0.0,0.0,0.0,1.0,0.0,0.0,0.0,0,0,0.0
0,0.2611699369218614,0.0,0.0,0.0,0.0,0.0,1.0,0.0,0.0,0.0,0,0,0.0
0,0.26682403352525497,0.0,0.0,0.0,0.0,0.0,1.0,0.0,0.0,0.0,0,0,0.0
0,0.27235594060685897,0.0,0.0,0.0,0.0,0.0,1.0,0.0,0.0,0.0,0,0,0.0
0,0.27790798081292045,0.0,0.0,0.0,0.0,0.0,1.0,0.0,0.0,0.0,0,0,0.0
0,0.2834075689315796,0.0,0.0,0.0,0.0,0.0,1.0,0.0,0.0,0.0,0,0,0.0
0,0.28893543614281547,0.0,0.0,0.0,0.0,0.0,1.0,0.0,0.0,0.0,0,0,0.0
0,0.29452986187405056,0.0,0.0,0.0,0.0,0.0,1.0,0.0,0.0,0.0,0,0,0.0
0,0.3000703785154554,0.0,0.0,0.0,0.0,0.0,1.0,0.0,0.0,0.0,0,0,0.0
0,0.305601954460144,0.0,0.0,0.0,0.0,0.0,1.0,0.0,0.0,0.0,0,0,0.0
0,0.3111289607153998,0.0,0.0,0.0,0.0,0.0,1.0,0.0,0.0,0.0,0,0,0.0
0,0.3166816631952921,0.0,0.0,0.0,0.0,0.0,1.0,0.0,0.0,0.0,0,0,0.0
0,0.3223262892829047,0.0,0.0,0.0,0.0,0.0,1.0,0.0,0.0,0.0,0,0,0.0
0,0.32782581117418075,0.0,0.0,0.0,0.0,0.0,1.0,0.0,0.0,0.0,0,0,0.0
0,0.3333408302730984,0.0,0.0,0.0,0.0,0.0,1.0,0.0,0.0,0.0,0,0,0.0
0,0.3389152553346422,0.0,0.0,0.0,0.0,0.0,1.0,0.0,0.0,0.0,0,0,0.0
0,0.3444631232155694,0.0,0.0,0.0,0.0,0.0,1.0,0.0,0.0,0.0,0,0,0.0
0,0.3500161568323771,0.0,0.0,0.0,0.0,0.0,1.0,0.0,0.0,0.0,0,0,0.0
0,0.3556032313240899,0.0,0.0,0.0,0.0,0.0,1.0,0.0,0.0,0.0,0,0,0.0
0,0.3611293766233656,0.0,0.0,0.0,0.0,0.0,1.0,0.0,0.0,0.0,0,0,0.0
0,0.3667092323303222,0.0,0.0,0.0,0.0,0.0,1.0,0.0,0.0,0.0,0,0,0.0
0,0.37226915359497065,0.0,0.0,0.0,0.0,-6.48576044875082e-06,0.9999999999789675,0.0,0.0,0.0,0,0,0.0
0,0.3777918550698614,-7.163783759672849e-08,0.0,0.0,0.0,-1.2928103261294976e-05,0.9999999999164321,0.0,0.0,0.0,0,0,0.0
0,0.38337515459887206,-2.1600078333249988e-07,0.0,0.0,0.0,-1.9441134928952596e-05,0.9999999998110212,0.0,0.0,0.0,0,0,0.0
0,0.38903017838135406,-4.358809442204952e-07,0.0,0.0,0.0,-2.603783438885387e-05,0.9999999996610156,0.0,0.0,0.0,0,0,0.0
0,0.39448095691128954,-7.197338818147208e-07,0.0,0.0,0.0,-3.239627763915158e-05,0.9999999994752407,0.0,0.0,0.0,0,0,0.0
0,0.4000116056610059,-1.0780787472197318e-06,0.0,0.0,0.0,-3.884789111750107e-05,0.9999999992454207,0.0,0.0,0.0,0,0,0.0
0,0.40558675920693604,-1.5112446640315927e-06,0.0,0.0,0.0,-4.535142034391333e-05,0.9999999989716243,0.0,0.0,0.0,0,0,0.0
0,0.4111372761603545,-2.0146923205457895e-06,0.0,0.0,0.0,-5.182621049270092e-05,0.9999999986570219,0.0,0.0,0.0,0,0,0.0
0,0.4166858062853063,-2.5898109032245938e-06,0.0,0.0,0.0,-5.8298682971920944e-05,0.9999999983006318,0.0,0.0,0.0,0,0,0.0
0,0.4222553967100259,-3.239210479443642e-06,0.0,0.0,0.0,-8.042555657394714e-05,0.9999999967658649,0.0,0.0,0.0,0,0,0.0
0,0.4278190928635351,-4.134137207635202e-06,0.0,0.0,0.0,-0.00010252901350665343,0.9999999947439007,0.0,0.0,0.0,0,0,0.0
0,0.43338477579349666,-5.275425186230936e-06,0.0,0.0,0.0,-0.00014957803562677658,0.9999999888132056,0.0,0.0,0.0,0,0,0.0
0,0.43903205072373297,-6.964841824346582e-06,0.0,0.0,0.0,-0.00021177370282083986,0.9999999775759492,0.0,0.0,0.0,0,0,0.0
0,0.44448070949607665,-9.272607266847871e-06,0.0,0.0,0.0,-0.0002717819338185478,0.9999999630672896,0.0,0.0,0.0,0,0,0.0
0,0.4500324839724374,-1.229035160782785e-05,0.0,0.0,0.0,-0.00033292582133037586,0.9999999445801973,0.0,0.0,0.0,0,0,0.0
0,0.4555741252508878,-1.5980263169603212e-05,0.0,0.0,0.0,-0.00039507241945634455,0.9999999219588886,0.0,0.0,0.0,0,0,0.0
0,0.4611735162879229,-2.0404594134409602e-05,0.0,0.0,0.0,-0.0004936305351136808,0.99999987816444,0.0,0.0,0.0,0,0,0.0
0,0.4667497929986367,-2.590983705991595e-05,0.0,0.0,0.0,-0.0006347883744641405,0.9999997985218395,0.0,0.0,0.0,0,0,0.0
0,0.4722931529500472,-3.294756221901095e-05,0.0,0.0,0.0,-0.0007751129913146221,0.9999996995998802,0.0,0.0,0.0,0,0,0.0
0,0.4778049202842445,-4.1492054850991345e-05,0.0,0.0,0.0,-0.0009146379127166612,0.9999995817186569,0.0,0.0,0.0,0,0,0.0
0,0.48335873933740003,-5.1651534532323986e-05,0.0,0.0,0.0,-0.001055741702676263,0.9999994427045733,0.0,0.0,0.0,0,0,0.0
0,0.48894725837369196,-6.345161946635484e-05,0.0,0.0,0.0,-0.0011977271597732237,0.9999992827245682,0.0,0.0,0.0,0,0,0.0
0,0.49451372017848044,-7.678585313418716e-05,0.0,0.0,0.0,-0.0013391522833662857,0.9999991033351789,0.0,0.0,0.0,0,0,0.0
0,0.5000256068210717,-9.154840401154359e-05,0.0,0.0,0.0,-0.0015245657582333646,0.9999988378489492,0.0,0.0,0.0,0,0,0.0
0,0.5056105360742945,-0.00010857764718646408,0.0,0.0,0.0,-0.0017124364478409363,0.9999985337796311,0.0,0.0,0.0,0,0,0.0
0,0.5111935379518269,-0.00012769880310089157,0.0,0.0,0.0,-0.0019290711373838158,0.9999981393405424,0.0,0.0,0.0,0,0,0.0
0,0.5167445434327497,-0.0001491154915618725,0.0,0.0,0.0,-0.0021778410347473593,0.9999976285014017,0.0,0.0,0.0,0,0,0.0
0,0.5226533607273935,-0.00017485260421079741,0.0,0.0,0.0,-0.00244264676346282,0.9999970167339446,0.0,0.0,0.0,0,0,0.0
0,0.5278321478303336,-0.0002001527257533231,0.0,0.0,0.0,-0.0026747363596733775,0.9999964228863053,0.0,0.0,0.0,0,0,0.0
0,0.5333931153906454,-0.00022990128925274564,0.0,0.0,0.0,-0.0029543436572689796,0.9999956359172548,0.0,0.0,0.0,0,0,0.0
0,0.539020159220084,-0.0002631501670492932,0.0,0.0,0.0,-0.003237273947086461,0.999994760014967,0.0,0.0,0.0,0,0,0.0
0,0.5445496986697217,-0.00029895199785284695,0.0,0.0,0.0,-0.0035153023947104493,0.9999938213054488,0.0,0.0,0.0,0,0,0.0
0,0.550025905630751,-0.0003374537584142445,0.0,0.0,0.0,-0.0038229123042926574,0.9999926926440581,0.0,0.0,0.0,0,0,0.0
0,0.5556003002065524,-0.0003800755359996457,0.0,0.0,0.0,-0.004171903363488396,0.9999912975732967,0.0,0.0,0.0,0,0,0.0
0,0.5611528093993404,-0.0004264058091149572,0.0,0.0,0.0,-0.004519525699173955,0.9999897868915735,0.0,0.0,0.0,0,0,0.0
0,0.5667322384827431,-0.0004768401006511957,0.0,0.0,0.0,-0.004904988489073365,0.9999879704716063,0.0,0.0,0.0,0,0,0.0
0,0.5723105012152567,-0.0005315647045766575,0.0,0.0,0.0,-0.005364795413039023,0.9999856093815431,0.0,0.0,0.0,0,0,0.0
0,0.5778203685376404,-0.0005906858788348406,0.0,0.0,0.0,-0.00585768133496422,0.9999828436375187,0.0,0.0,0.0,0,0,0.0
0,0.5833576573798153,-0.0006555605648890527,0.0,0.0,0.0,-0.006353024298885147,0.9999798193374994,0.0,0.0,0.0,0,0,0.0
0,0.5890025562652574,-0.0007272892670843843,0.0,0.0,0.0,-0.006857998115976417,0.9999764836544114,0.0,0.0,0.0,0,0,0.0
0,0.5944652716558945,-0.0008022211372112932,0.0,0.0,0.0,-0.007347315499110505,0.9999730081131973,0.0,0.0,0.0,0,0,0.0
0,0.6000214140664097,-0.0008838732115975181,0.0,0.0,0.0,-0.007845006630190218,0.9999692274620116,0.0,0.0,0.0,0,0,0.0
0,0.6055784657354029,-0.000971071475990925,0.0,0.0,0.0,-0.008423125065719498,0.9999645248528206,0.0,0.0,0.0,0,0,0.0
0,0.6111339560687398,-0.0010646706171968377,0.0,0.0,0.0,-0.0090010891288852,0.9999594893766917,0.0,0.0,0.0,0,0,0.0
0,0.6166948304743795,-0.001164790637453829,0.0,0.0,0.0,-0.009696743797252355,0.9999529854746825,0.0,0.0,0.0,0,0,0.0
0,0.6222272864187871,-0.0012720993886260416,0.0,0.0,0.0,-0.010388856722182186,0.9999460343718585,0.0,0.0,0.0,0,0,0.0
0,0.6278026270221984,-0.0013879609760059127,0.0,0.0,0.0,-0.011132116199182258,0.9999380360746999,0.0,0.0,0.0,0,0,0.0
0,0.6334526076192126,-0.001513776845682644,0.0,0.0,0.0,-0.011885343904045194,0.9999293668056172,0.0,0.0,0.0,0,0,0.0
0,0.6390541261337052,-0.001646957015028742,0.0,0.0,0.0,-0.01264782029917169,0.9999200131218896,0.0,0.0,0.0,0,0,0.0
0,0.6445508954440836,-0.0017860346900130655,0.0,0.0,0.0,-0.01339605913007533,0.9999102687740453,0.0,0.0,0.0,0,0,0.0
0,0.6501092846293549,-0.0019349958109923086,0.0,0.0,0.0,-0.014152707736336307,0.9998998454163947,0.0,0.0,0.0,0,0,0.0
0,0.655590913819617,-0.002090202238152084,0.0,0.0,0.0,-0.014898930395908198,0.9998890047765592,0.0,0.0,0.0,0,0,0.0
0,0.6611504850578416,-0.002255920751903143,0.0,0.0,0.0,-0.015655787777752186,0.9998774406441311,0.0,0.0,0.0,0,0,0.0
0,0.6667726180225344,-0.002432023344716765,0.0,0.0,0.0,-0.016467165857619735,0.9998644070315823,0.0,0.0,0.0,0,0,0.0
0,0.6723540147890026,-0.002615917724994125,0.0,0.0,0.0,-0.017272696234325785,0.9998508158544437,0.0,0.0,0.0,0,0,0.0
0,0.6779382850205953,-0.0028089149124529865,0.0,0.0,0.0,-0.018078673935589564,0.9998365674192611,0.0,0.0,0.0,0,0,0.0
0,0.6833784188120713,-0.0030057122169485644,0.0,0.0,0.0,-0.01886388190400185,0.9998220611486385,0.0,0.0,0.0,0,0,0.0
0,0.6889742236350318,-0.0032169421843674362,0.0,0.0,0.0,-0.019671593576131238,0.9998064954810884,0.0,0.0,0.0,0,0,0.0
0,0.6944696877371853,-0.003433276850335391,0.0,0.0,0.0,-0.020464858756105313,0.9997905728481804,0.0,0.0,0.0,0,0,0.0
0,0.6999886235172531,-0.0036593073534708005,0.0,0.0,0.0,-0.021261549855013374,0.99977394769906,0.0,0.0,0.0,0,0,0.0
0,0.7056454159780639,-0.0039000149531439147,0.0,0.0,0.0,-0.022085942217655335,0.9997560758286785,0.0,0.0,0.0,0,0,0.0
0,0.7112730229718883,-0.004148779012428345,0.0,0.0,0.0,-0.022906125009081818,0.9997376202969799,0.0,0.0,0.0,0,0,0.0
0,0.7166764020973461,-0.004396514987600912,0.0,0.0,0.0,-0.023693671898644984,0.999719265550064,0.0,0.0,0.0,0,0,0.0
0,0.7222512497603911,-0.004660914909770979,0.0,0.0,0.0,-0.02487807484810286,0.9996904927985722,0.0,0.0,0.0,0,0,0.0
0,0.7277926471564103,-0.004936889783210824,0.0,0.0,0.0,-0.026055472144153765,0.999660498555057,0.0,0.0,0.0,0,0,0.0
0,0.7334041461878295,-0.005229608465608479,0.0,0.0,0.0,-0.027247870494472186,0.9996287078478271,0.0,0.0,0.0,0,0,0.0
0,0.7388457067091219,-0.005526481058685934,0.0,0.0,0.0,-0.028404268466848112,0.9995965173673141,0.0,0.0,0.0,0,0,0.0
0,0.7446675522206605,-0.005857612455683291,0.0,0.0,0.0,-0.029647051987705213,0.9995604295431259,0.0,0.0,0.0,0,0,0.0
0,0.749988625241112,-0.0061735373874890805,0.0,0.0,0.0,-0.030783060247349968,0.9995260893052307,0.0,0.0,0.0,0,0,0.0
0,0.7555702009889671,-0.0065176626838308665,0.0,0.0,0.0,-0.03197480499422691,0.9994886751962632,0.0,0.0,0.0,0,0,0.0
0,0.7611074517326787,-0.006872311824778208,0.0,0.0,0.0,-0.033241347747121626,0.999447353691006,0.0,0.0,0.0,0,0,0.0
0,0.7666947343270233,-0.0072443864227992,0.0,0.0,0.0,-0.03451949181488213,0.9994040247491713,0.0,0.0,0.0,0,0,0.0
0,0.7721611968049741,-0.007622461540934516,0.0,0.0,0.0,-0.03594308405368111,0.9993538385920725,0.0,0.0,0.0,0,0,0.0
0,0.7777069504550128,-0.008021898990179748,0.0,0.0,0.0,-0.037387541462142876,0.9993008414603765,0.0,0.0,0.0,0,0,0.0
0,0.7832467711754143,-0.008437010433121981,0.0,0.0,0.0,-0.03883068208942932,0.9992458046589285,0.0,0.0,0.0,0,0,0.0
0,0.7889132653763042,-0.008878076303420447,0.0,0.0,0.0,-0.040393062422496594,0.999183867217707,0.0,0.0,0.0,0,0,0.0
0,0.7942799816236127,-0.009312696926323187,0.0,0.0,0.0,-0.04187306369235128,0.9991229386502025,0.0,0.0,0.0,0,0,0.0
0,0.7997897841274744,-0.009775339201845847,0.0,0.0,0.0,-0.043392800099862995,0.9990580888514408,0.0,0.0,0.0,0,0,0.0
0,0.8053416331562866,-0.010258525536902484,0.0,0.0,0.0,-0.045068858663898106,0.998983882742226,0.0,0.0,0.0,0,0,0.0
0,0.8109203896122699,-0.010762920002450141,0.0,0.0,0.0,-0.04675341397439756,0.9989064612273456,0.0,0.0,0.0,0,0,0.0
0,0.8164750602558342,-0.01128402981983992,0.0,0.0,0.0,-0.04843588825694262,0.9988262935709897,0.0,0.0,0.0,0,0,0.0
0,0.8220355902167081,-0.011824592366263391,0.0,0.0,0.0,-0.050120541603550346,0.9987431758512129,0.0,0.0,0.0,0,0,0.0
0,0.8274988495556338,-0.012374308960941022,0.0,0.0,0.0,-0.05189068616841296,0.9986527708312691,0.0,0.0,0.0,0,0,0.0
0,0.8330105828585648,-0.012948646543951564,0.0,0.0,0.0,-0.053677019876429165,0.9985583495906413,0.0,0.0,0.0,0,0,0.0
0,0.8385397164524121,-0.01354480095112961,0.0,0.0,0.0,-0.05547556177797547,0.9984600452924584,0.0,0.0,0.0,0,0,0.0
0,0.8441127403788089,-0.014166005573750721,0.0,0.0,0.0,-0.05728891444575496,0.998357641470043,0.0,0.0,0.0,0,0,0.0
0,0.8496288631153148,-0.014801162121171722,0.0,0.0,0.0,-0.059084305263853894,0.9982529964249983,0.0,0.0,0.0,0,0,0.0
0,0.8551555555327597,-0.015457686543728331,0.0,0.0,0.0,-0.060982144531126534,0.9981388570977411,0.0,0.0,0.0,0,0,0.0
0,0.8606491448561028,-0.0161314726348007,0.0,0.0,0.0,-0.06293320237524574,0.99801774134471,0.0,0.0,0.0,0,0,0.0
0,0.8661419633289988,-0.01682697266911013,0.0,0.0,0.0,-0.06488469663605279,0.9978927678575726,0.0,0.0,0.0,0,0,0.0
0,0.8716263064428399,-0.017543203528642137,0.0,0.0,0.0,-0.06689727659018917,0.9977598680969363,0.0,0.0,0.0,0,0,0.0
0,0.8771737441425558,-0.018290446000296164,0.0,0.0,0.0,-0.0689338227319312,0.9976212347797949,0.0,0.0,0.0,0,0,0.0
0,0.8826974216274491,-0.019057460401501344,0.0,0.0,0.0,-0.07102204423937845,0.9974747461625582,0.0,0.0,0.0,0,0,0.0
0,0.8882030886116508,-0.0198454827570389,0.0,0.0,0.0,-0.07317027208784324,0.9973194630019967,0.0,0.0,0.0,0,0,0.0
0,0.8937371518496351,-0.020661911870157732,0.0,0.0,0.0,-0.07533058952067792,0.9971586144051844,0.0,0.0,0.0,0,0,0.0
0,0.8992134774619156,-0.02149408182856021,0.0,0.0,0.0,-0.07759412726437064,0.9969850306870613,0.0,0.0,0.0,0,0,0.0
0,0.9046183137725354,-0.02234051254689947,0.0,0.0,0.0,-0.07982928920743051,0.9968085496145368,0.0,0.0,0.0,0,0,0.0
0,0.9100943601712569,-0.023223271191500444,0.0,0.0,0.0,-0.0820951044657143,0.9966244999109561,0.0,0.0,0.0,0,0,0.0
0,0.9156361139222223,-0.024142491895497428,0.0,0.0,0.0,-0.08438938045563106,0.9964328539677497,0.0,0.0,0.0,0,0,0.0
0,0.921017482080907,-0.025060589231313265,0.0,0.0,0.0,-0.08662599440557962,0.9962409031420284,0.0,0.0,0.0,0,0,0.0
0,0.9265521475709964,-0.02603043198984927,0.0,0.0,0.0,-0.08892765259975326,0.9960380879279154,0.0,0.0,0.0,0,0,0.0
0,0.9320314970345625,-0.02701670144233855,0.0,0.0,0.0,-0.09120770978051175,0.9958318902689318,0.0,0.0,0.0,0,0,0.0
0,0.9374615319940439,-0.028019783920854115,0.0,0.0,0.0,-0.09359465902615684,0.9956103855433497,0.0,0.0,0.0,0,0,0.0
0,0.942930485522101,-0.029057195186412806,0.0,0.0,0.0,-0.09604729058137418,0.9953767718668027,0.0,0.0,0.0,0,0,0.0
0,0.9484023215486492,-0.030123112055678972,0.0,0.0,0.0,-0.09861039837280969,0.9951261173000917,0.0,0.0,0.0,0,0,0.0
0,0.9538819074054973,-0.0312198628286811,0.0,0.0,0.0,-0.10117909193961448,0.9948682281359049,0.0,0.0,0.0,0,0,0.0
0,0.9592289338698239,-0.03231882535868487,0.0,0.0,0.0,-0.10368762050611723,0.9946099121533927,0.0,0.0,0.0,0,0,0.0
0,0.9646854403766995,-0.033469001966729486,0.0,0.0,0.0,-0.10625532209963671,0.9943388791179305,0.0,0.0,0.0,0,0,0.0
0,0.9701172919220035,-0.034643309782127804,0.0,0.0,0.0,-0.10886008939102526,0.9940570813277163,0.0,0.0,0.0,0,0,0.0
0,0.9756026593677265,-0.03585930790058791,0.0,0.0,0.0,-0.11154085213345077,0.9937598494129976,0.0,0.0,0.0,0,0,0.0
0,0.9810295301656455,-0.03709308876667244,0.0,0.0,0.0,-0.11428931811074461,0.9934475083092116,0.0,0.0,0.0,0,0,0.0
0,0.9863496505385969,-0.0383335934280604,0.0,0.0,0.0,-0.11698630392183569,0.9931335281293789,0.0,0.0,0.0,0,0,0.0
0,0.9917685960609247,-0.0396282080085564,0.0,0.0,0.0,-0.1197382807660981,0.992805491583915,0.0,0.0,0.0,0,0,0.0
0,0.9971412351244009,-0.040943281625175514,0.0,0.0,0.0,-0.12246949135878464,0.9924722785480311,0.0,0.0,0.0,0,0,0.0
0,1.0025840304377094,-0.042307316477079054,0.0,0.0,0.0,-0.12526328695081038,0.9921235351216495,0.0,0.0,0.0,0,0,0.0
0,1.0079536266493565,-0.04368518743581582,0.0,0.0,0.0,-0.1280224731735777,0.9917712671591775,0.0,0.0,0.0,0,0,0.0
0,1.0133051613897661,-0.04509020123661582,0.0,0.0,0.0,-0.1307753646521202,0.9914120253457213,0.0,0.0,0.0,0,0,0.0
0,1.018706953947962,-0.04654051775652065,0.0,0.0,0.0,-0.13355718441519093,0.9910411083759778,0.0,0.0,0.0,0,0,0.0
0,1.0241167426446676,-0.048025583962833185,0.0,0.0,0.0,-0.13634631406941447,0.9906612350544886,0.0,0.0,0.0,0,0,0.0
0,1.0295774503094086,-0.0495577388738984,0.0,0.0,0.0,-0.13916500026077191,0.9902692071868232,0.0,0.0,0.0,0,0,0.0
0,1.0347901067609087,-0.051052351764953444,0.0,0.0,0.0,-0.1418589421303196,0.9898868826980518,0.0,0.0,0.0,0,0,0.0
0,1.040077564373816,-0.052599600435690425,0.0,0.0,0.0,-0.14459477721165806,0.9894909551901477,0.0,0.0,0.0,0,0,0.0
0,1.045396619402677,-0.05418807286745727,0.0,0.0,0.0,-0.14737012648675266,0.9890814151622093,0.0,0.0,0.0,0,0,0.0
0,1.0507455121410536,-0.0558181993715269,0.0,0.0,0.0,-0.15034961110826392,0.9886328916436039,0.0,0.0,0.0,0,0,0.0
0,1.0560536266708,-0.05747092129508387,0.0,0.0,0.0,-0.15331052202428097,0.988178062818965,0.0,0.0,0.0,0,0,0.0
0,1.0613324942498492,-0.059149295458085435,0.0,0.0,0.0,-0.1562593067032227,0.9877160670297047,0.0,0.0,0.0,0,0,0.0
0,1.0666739429498593,-0.06088274308438824,0.0,0.0,0.0,-0.159273759441816,0.9872344552097392,0.0,0.0,0.0,0,0,0.0
0,1.0718904161594591,-0.06261090575808677,0.0,0.0,0.0,-0.16222214505696897,0.9867542630529222,0.0,0.0,0.0,0,0,0.0
0,1.0771127843200066,-0.06437571570511498,0.0,0.0,0.0,-0.16517831481220907,0.986263719456312,0.0,0.0,0.0,0,0,0.0
0,1.082388472915593,-0.06619384525355818,0.0,0.0,0.0,-0.16819303667811975,0.9857540780605438,0.0,0.0,0.0,0,0,0.0
0,1.087705553574313,-0.06806269223968804,0.0,0.0,0.0,-0.17123628895224308,0.9852299900763597,0.0,0.0,0.0,0,0,0.0
0,1.0929691581782206,-0.06994934800054156,0.0,0.0,0.0,-0.17431609843749377,0.9846897469891367,0.0,0.0,0.0,0,0,0.0
0,1.0980863171896529,-0.07181970661522094,0.0,0.0,0.0,-0.17731536667112638,0.984154083841694,0.0,0.0,0.0,0,0,0.0
0,1.1033126346148387,-0.07376614531621493,0.0,0.0,0.0,-0.18038356265334282,0.9835963452171259,0.0,0.0,0.0,0,0,0.0
0,1.108465721838111,-0.07572199403838827,0.0,0.0,0.0,-0.18341414666709568,0.9830357322103714,0.0,0.0,0.0,0,0,0.0
0,1.1136733068390559,-0.0777353376700567,0.0,0.0,0.0,-0.18648224540599398,0.98245833099849,0.0,0.0,0.0,0,0,0.0
0,1.118870499239268,-0.07978205546638997,0.0,0.0,0.0,-0.18960525821983207,0.9818604004925501,0.0,0.0,0.0,0,0,0.0
0,1.1240542017832527,-0.08186163512907466,0.0,0.0,0.0,-0.19272613202098524,0.981252586257091,0.0,0.0,0.0,0,0,0.0
0,1.1291310201619054,-0.08393591116566705,0.0,0.0,0.0,-0.19580427872174158,0.9806429954036578,0.0,0.0,0.0,0,0,0.0
0,1.134266754495312,-0.08607196782015349,0.0,0.0,0.0,-0.1988927884041351,0.9800212542189215,0.0,0.0,0.0,0,0,0.0
0,1.1394034428741973,-0.08824648649099445,0.0,0.0,0.0,-0.201988067688984,0.9793879826255121,0.0,0.0,0.0,0,0,0.0
0,1.1444775689655096,-0.09043243075884631,0.0,0.0,0.0,-0.2050519226889969,0.9787510965518995,0.0,0.0,0.0,0,0,0.0
0,1.1496399416020775,-0.09269480202786674,0.0,0.0,0.0,-0.20818113524532994,0.9780902897626403,0.0,0.0,0.0,0,0,0.0
0,1.1546360365007013,-0.09492250580762396,0.0,0.0,0.0,-0.21122745205710797,0.9774369358160465,0.0,0.0,0.0,0,0,0.0
0,1.1597452425312096,-0.09723891747514667,0.0,0.0,0.0,-0.2143493478953212,0.9767570614317823,0.0,0.0,0.0,0,0,0.0
0,1.164762681107985,-0.0995524890689399,0.0,0.0,0.0,-0.2174200857613304,0.9760781251045101,0.0,0.0,0.0,0,0,0.0
0,1.1697798005167945,-0.1019042915226338,0.0,0.0,0.0,-0.22056202841796413,0.9753729500145845,0.0,0.0,0.0,0,0,0.0
0,1.174810186737951,-0.10430194842359719,0.0,0.0,0.0,-0.22371836401176082,0.9746538327036431,0.0,0.0,0.0,0,0,0.0
0,1.1797764313494155,-0.10670861424366027,0.0,0.0,0.0,-0.2267971722433094,0.9739420119608962,0.0,0.0,0.0,0,0,0.0
0,1.1847993767785983,-0.10918207888397125,0.0,0.0,0.0,-0.22991844644883136,0.9732098992419651,0.0,0.0,0.0,0,0,0.0
0,1.18981873740057,-0.11169389377780942,0.0,0.0,0.0,-0.23304224367132706,0.9724666126220652,0.0,0.0,0.0,0,0,0.0
0,1.1947681428129528,-0.11421057502258905,0.0,0.0,0.0,-0.2361320845323266,0.9717209674872814,0.0,0.0,0.0,0,0,0.0
0,1.199659554135714,-0.11673702961427794,0.0,0.0,0.0,-0.23919333005686075,0.9709719619310898,0.0,0.0,0.0,0,0,0.0
0,1.204568022066172,-0.11931161494872865,0.0,0.0,0.0,-0.24227294524158094,0.9702081323118097,0.0,0.0,0.0,0,0,0.0
0,1.2094512269537412,-0.12191259540744458,0.0,0.0,0.0,-0.24534172169497137,0.9694366609509604,0.0,0.0,0.0,0,0,0.0
0,1.2143688465557478,-0.12457199261104666,0.0,0.0,0.0,-0.24844495879382214,0.9686460150384846,0.0,0.0,0.0,0,0,0.0
0,1.219415216370736,-0.12734293539941413,0.0,0.0,0.0,-0.2516379138132572,0.9678214506466116,0.0,0.0,0.0,0,0,0.0
0,1.2240960445799989,-0.12995348741523155,0.0,0.0,0.0,-0.2546601271765173,0.9670306197977601,0.0,0.0,0.0,0,0,0.0
0,1.2289520578583968,-0.13270165891844213,0.0,0.0,0.0,-0.25780383417431046,0.9661972795889174,0.0,0.0,0.0,0,0,0.0
0,1.2337299124393055,-0.1354467816015201,0.0,0.0,0.0,-0.2609057604557663,0.9653642753701829,0.0,0.0,0.0,0,0,0.0
0,1.238474530665574,-0.13821349784771492,0.0,0.0,0.0,-0.26393178132437295,0.9645413494542073,0.0,0.0,0.0,0,0,0.0
0,1.2433088073676855,-0.14107327579966894,0.0,0.0,0.0,-0.26702367848468755,0.9636899683656078,0.0,0.0,0.0,0,0,0.0
0,1.2480660988691368,-0.1439288605818944,0.0,0.0,0.0,-0.2700607920105969,0.9628432731335922,0.0,0.0,0.0,0,0,0.0
0,1.2527923351337436,-0.1468065000411682,0.0,0.0,0.0,-0.27308693040785315,0.9619893598374237,0.0,0.0,0.0,0,0,0.0
0,1.2575791017547446,-0.14976241498443219,0.0,0.0,0.0,-0.27616089864000887,0.9611114181312918,0.0,0.0,0.0,0,0,0.0
0,1.2623812201784999,-0.15277039045394247,0.0,0.0,0.0,-0.27925415996021713,0.9602172223746632,0.0,0.0,0.0,0,0,0.0
0,1.2670102601093427,-0.15571162735676344,0.0,0.0,0.0,-0.28224125639851944,0.9593434594484841,0.0,0.0,0.0,0,0,0.0
0,1.2716052020080713,-0.15867150699516722,0.0,0.0,0.0,-0.28521546100062783,0.958463426952849,0.0,0.0,0.0,0,0,0.0
0,1.276290104055654,-0.1617306220303823,0.0,0.0,0.0,-0.28825727724635164,0.9575529970265457,0.0,0.0,0.0,0,0,0.0
0,1.2809227392121625,-0.1647977453538483,0.0,0.0,0.0,-0.2913205027465599,0.9566255091097516,0.0,0.0,0.0,0,0,0.0
0,1.2855502729058332,-0.16790427859087792,0.0,0.0,0.0,-0.29437039386195146,0.9556914100365032,0.0,0.0,0.0,0,0,0.0
0,1.2900999146702765,-0.17100080793048344,0.0,0.0,0.0,-0.29737896813905246,0.9547595243350822,0.0,0.0,0.0,0,0,0.0
0,1.2947062800663025,-0.17417858487085153,0.0,0.0,0.0,-0.3004352038765985,0.9538022270217378,0.0,0.0,0.0,0,0,0.0
0,1.2992597418940943,-0.17736310413103346,0.0,0.0,0.0,-0.30346314572096617,0.9528431765978784,0.0,0.0,0.0,0,0,0.0
0,1.303749118666014,-0.18054546158624263,0.0,0.0,0.0,-0.30645883798970003,0.9518839113137708,0.0,0.0,0.0,0,0,0.0
0,1.3083707128756374,-0.18386542394125785,0.0,0.0,0.0,-0.3095428619641939,0.9508854907963503,0.0,0.0,0.0,0,0,0.0
0,1.3128871163546043,-0.1871544208994691,0.0,0.0,0.0,-0.3125512681975907,0.9499008920661554,0.0,0.0,0.0,0,0,0.0
0,1.3172533303438938,-0.19037654237666451,0.0,0.0,0.0,-0.31547016394801847,0.9489354960473395,0.0,0.0,0.0,0,0,0.0
0,1.3218233947835736,-0.19379270093480008,0.0,0.0,0.0,-0.31853610560775014,0.9479107286154368,0.0,0.0,0.0,0,0,0.0
0,1.326140488854937,-0.19706348160330042,0.0,0.0,0.0,-0.3213592960377263,0.9469573395090916,0.0,0.0,0.0,0,0,0.0
0,1.3305492589248704,-0.2004452639798358,0.0,0.0,0.0,-0.32430465743126635,0.9459526886522333,0.0,0.0,0.0,0,0,0.0
0,1.3349054130048719,-0.20382995907628704,0.0,0.0,0.0,-0.32722577805952646,0.9449461837445229,0.0,0.0,0.0,0,0,0.0
0,1.3392420261769915,-0.20724265424049468,0.0,0.0,0.0,-0.3301447553375319,0.9439303155016906,0.0,0.0,0.0,0,0,0.0
0,1.3437154739176822,-0.2108080276020761,0.0,0.0,0.0,-0.33316728353525416,0.9428677326018425,0.0,0.0,0.0,0,0,0.0
0,1.3479686438486314,-0.21424263218097714,0.0,0.0,0.0,-0.33605259439360363,0.9418432214553164,0.0,0.0,0.0,0,0,0.0
0,1.3522980107182399,-0.21778278701051684,0.0,0.0,0.0,-0.33900098782162613,0.9407860172515117,0.0,0.0,0.0,0,0,0.0
0,1.35649938147957,-0.22126242245763508,0.0,0.0,0.0,-0.34187379754478003,0.9397458733893492,0.0,0.0,0.0,0,0,0.0
0,1.3607866382696736,-0.2248575831078151,0.0,0.0,0.0,-0.3448169857930468,0.9386699346994116,0.0,0.0,0.0,0,0,0.0
0,1.3650174075803152,-0.22845077602784286,0.0,0.0,0.0,-0.3477283988558814,0.9375953074909905,0.0,0.0,0.0,0,0,0.0
0,1.3692347309005186,-0.23207784595244238,0.0,0.0,0.0,-0.3505154391330858,0.9365569533826227,0.0,0.0,0.0,0,0,0.0
0,1.3734029299631192,-0.2357060226961176,0.0,0.0,0.0,-0.3532811588391087,0.9355171953573577,0.0,0.0,0.0,0,0,0.0
0,1.3778366601926264,-0.23961161994991012,0.0,0.0,0.0,-0.3562006771972464,0.9344094806690604,0.0,0.0,0.0,0,0,0.0
0,1.3817748749962668,-0.24312464781321558,0.0,0.0,0.0,-0.3588053695309247,0.9334123991011565,0.0,0.0,0.0,0,0,0.0
0,1.386036920138215,-0.246969449083641,0.0,0.0,0.0,-0.36163521084384154,0.9323196738661746,0.0,0.0,0.0,0,0,0.0
0,1.3899298026936067,-0.25052430229216766,0.0,0.0,0.0,-0.3642028482752404,0.9313196472254852,0.0,0.0,0.0,0,0,0.0
0,1.394037372750636,-0.25431692470626155,0.0,0.0,0.0,-0.366922810495143,0.930251391365982,0.0,0.0,0.0,0,0,0.0
0,1.3981435651359635,-0.2581529745338291,0.0,0.0,0.0,-0.3697055502928008,0.9291489687249819,0.0,0.0,0.0,0,0,0.0
0,1.4021605509268442,-0.2619509742879584,0.0,0.0,0.0,-0.3724399625667014,0.928056288316239,0.0,0.0,0.0,0,0,0.0
0,1.406171035128989,-0.26578781080629693,0.0,0.0,0.0,-0.3751820344750499,0.926951153517359,0.0,0.0,0.0,0,0,0.0
0,1.4102290427884263,-0.2697163305735265,0.0,0.0,0.0,-0.3778706904561629,0.9258583807981557,0.0,0.0,0.0,0,0,0.0
0,1.4141556866355216,-0.2735620812416734,0.0,0.0,0.0,-0.3805315888337233,0.924767922183551,0.0,0.0,0.0,0,0,0.0
0,1.418188116263828,-0.2775571343463537,0.0,0.0,0.0,-0.38327639479845255,0.9236336964350644,0.0,0.0,0.0,0,0,0.0
0,1.421978003148277,-0.2813567647083852,0.0,0.0,0.0,-0.385868314359016,0.9225538704995669,0.0,0.0,0.0,0,0,0.0
0,1.4259260509106584,-0.2853596711568616,0.0,0.0,0.0,-0.388534244299033,0.9214342846926087,0.0,0.0,0.0,0,0,0.0
0,1.4297877772300738,-0.28932061369537887,0.0,0.0,0.0,-0.39112810007309495,0.9203362479731041,0.0,0.0,0.0,0,0,0.0
0,1.4336460201730201,-0.29332284422809873,0.0,0.0,0.0,-0.3937315926804945,0.919225452718364,0.0,0.0,0.0,0,0,0.0
0,1.4374667852941243,-0.29733136812486427,0.0,0.0,0.0,-0.39631904658986256,0.918112854343137,0.0,0.0,0.0,0,0,0.0
0,1.4413016568266332,-0.30140034120019066,0.0,0.0,0.0,-0.39890425279569813,0.9169925829043034,0.0,0.0,0.0,0,0,0.0
0,1.445105186079537,-0.30548189563723555,0.0,0.0,0.0,-0.4014806379160403,0.9158675108215868,0.0,0.0,0.0,0,0,0.0
0,1.4488385399869261,-0.30953358343421833,0.0,0.0,0.0,-0.4040178388463178,0.9147511059812667,0.0,0.0,0.0,0,0,0.0
0,1.452553255203416,-0.31361016509450385,0.0,0.0,0.0,-0.4065545839285038,0.9136264938620821,0.0,0.0,0.0,0,0,0.0
0,1.4562980917141508,-0.31776589533575667,0.0,0.0,0.0,-0.4091244107259937,0.9124786115565167,0.0,0.0,0.0,0,0,0.0
0,1.4600169648263581,-0.32193982111130864,0.0,0.0,0.0,-0.41156251066429594,0.9113815336156977,0.0,0.0,0.0,0,0,0.0
0,1.4636064394841313,-0.32601214829208514,0.0,0.0,0.0,-0.41392720377889025,0.9103099856487289,0.0,0.0,0.0,0,0,0.0
0,1.4672886038282598,-0.3302336206649977,0.0,0.0,0.0,-0.41631590129876833,0.9092200340543505,0.0,0.0,0.0,0,0,0.0
0,1.4709351357067795,-0.3344588281502557,0.0,0.0,0.0,-0.41869298989992415,0.9081278435378259,0.0,0.0,0.0,0,0,0.0
0,1.474503042604392,-0.33863692992528777,0.0,0.0,0.0,-0.42103024411037443,0.9070465994337659,0.0,0.0,0.0,0,0,0.0
0,1.4781595008663653,-0.34296365619787794,0.0,0.0,0.0,-0.4234815573584378,0.9059047248895836,0.0,0.0,0.0,0,0,0.0
0,1.4817588235049868,-0.3472697992290257,0.0,0.0,0.0,-0.4259070907489288,0.904766903710444,0.0,0.0,0.0,0,0,0.0
0,1.4852720156078487,-0.3515189624010661,0.0,0.0,0.0,-0.42825675552115383,0.9036570983235259,0.0,0.0,0.0,0,0,0.0
0,1.4887899150067574,-0.35581913286139477,0.0,0.0,0.0,-0.4306215584650182,0.902532588544679,0.0,0.0,0.0,0,0,0.0
0,1.4922665379443216,-0.3601145540117376,0.0,0.0,0.0,-0.4329707753986809,0.9014079585019565,0.0,0.0,0.0,0,0,0.0
0,1.4957507514117243,-0.3644655055851464,0.0,0.0,0.0,-0.43520970901367345,0.9003291115921076,0.0,0.0,0.0,0,0,0.0
0,1.499182892989045,-0.3687953678906416,0.0,0.0,0.0,-0.43742633135831593,0.8992542491611618,0.0,0.0,0.0,0,0,0.0
0,1.5026011824315957,-0.37315167439845187,0.0,0.0,0.0,-0.4395834481504703,0.8982017546810643,0.0,0.0,0.0,0,0,0.0
0,1.5060201778779445,-0.377552214411282,0.0,0.0,0.0,-0.4417158982049051,0.8971549839760318,0.0,0.0,0.0,0,0,0.0
0,1.5094319581853073,-0.3819867951151574,0.0,0.0,0.0,-0.44385445705425275,0.8960988901639565,0.0,0.0,0.0,0,0,0.0
0,1.5127723796702557,-0.38637174749339614,0.0,0.0,0.0,-0.44595890526193893,0.8950534368503218,0.0,0.0,0.0,0,0,0.0
0,1.5161221500195872,-0.39081210863192267,0.0,0.0,0.0,-0.4480440807781325,0.8940114661902712,0.0,0.0,0.0,0,0,0.0
0,1.5194273604765094,-0.39523615180421795,0.0,0.0,0.0,-0.4501119264503112,0.8929721460757831,0.0,0.0,0.0,0,0,0.0
0,1.5227423505192368,-0.39971638672496734,0.0,0.0,0.0,-0.4521963980141915,0.8919183917954551,0.0,0.0,0.0,0,0,0.0
0,1.5260196616525579,-0.4041892470718958,0.0,0.0,0.0,-0.45419167167705354,0.890903993356862,0.0,0.0,0.0,0,0,0.0
0,1.5293213829826353,-0.4087379949347816,0.0,0.0,0.0,-0.4562118614279158,0.889871191517332,0.0,0.0,0.0,0,0,0.0
0,1.5325490401951192,-0.4132274183718779,0.0,0.0,0.0,-0.45819213811093845,0.888853173799434,0.0,0.0,0.0,0,0,0.0
0,1.535808501289985,-0.4178039416172626,0.0,0.0,0.0,-0.4602020846840216,0.8878141929776076,0.0,0.0,0.0,0,0,0.0
0,1.5389446041106054,-0.4222496996646092,0.0,0.0,0.0,-0.4621461032263874,0.8868037997621939,0.0,0.0,0.0,0,0,0.0
0,1.5421645010329565,-0.42685697306469855,0.0,0.0,0.0,-0.4641509489859774,0.8857561157313093,0.0,0.0,0.0,0,0,0.0
0,1.545459258225568,-0.431617083385011,0.0,0.0,0.0,-0.46608286832206197,0.8847410693850938,0.0,0.0,0.0,0,0,0.0
0,1.5489530615226785,-0.4367121447902731,0.0,0.0,0.0,-0.4681420722300227,0.8836532126395401,0.0,0.0,0.0,0,0,0.0
0,1.5516022250738535,-0.440614301451373,0.0,0.0,0.0,-0.46971244287564734,0.8828194724901528,0.0,0.0,0.0,0,0,0.0
0,1.5546684066650631,-0.4451654575280947,0.0,0.0,0.0,-0.4715706342910063,0.8818282921716551,0.0,0.0,0.0,0,0,0.0
0,1.5577396611532777,-0.44976584123917357,0.0,0.0,0.0,-0.47331722362228346,0.8808920511745428,0.0,0.0,0.0,0,0,0.0
0,1.5608434680056704,-0.45445512534061694,0.0,0.0,0.0,-0.47508692014839043,0.8799388719132238,0.0,0.0,0.0,0,0,0.0
0,1.563912303474664,-0.45913231928511433,0.0,0.0,0.0,-0.4767524154090502,0.8790376183085888,0.0,0.0,0.0,0,0,0.0
0,1.5669086063847468,-0.46373689458299117,0.0,0.0,0.0,-0.4783863353872113,0.8781494827845625,0.0,0.0,0.0,0,0,0.0
0,1.5699368935999327,-0.46842870282058735,0.0,0.0,0.0,-0.48007467895711925,0.877227623039892,0.0,0.0,0.0,0,0,0.0
0,1.5729148705170541,-0.4730817563602977,0.0,0.0,0.0,-0.4817431935207533,0.8763124417103902,0.0,0.0,0.0,0,0,0.0
0,1.5759196887725149,-0.4778163419671516,0.0,0.0,0.0,-0.48330135540108093,0.8754540535444896,0.0,0.0,0.0,0,0,0.0
0,1.578860497233195,-0.4824867154569377,0.0,0.0,0.0,-0.48483343830349196,0.8746065041507604,0.0,0.0,0.0,0,0,0.0
0,1.5818277454387064,-0.487235880779184,0.0,0.0,0.0,-0.48633374638293025,0.8737731325287724,0.0,0.0,0.0,0,0,0.0
0,1.5847068525337333,-0.49187936637753277,0.0,0.0,0.0,-0.4877961580584058,0.8729575637930281,0.0,0.0,0.0,0,0,0.0
0,1.5876272485643346,-0.4966248552452117,0.0,0.0,0.0,-0.4892861972432829,0.8721232809570028,0.0,0.0,0.0,0,0,0.0
0,1.5905368045765869,-0.5013891079939714,0.0,0.0,0.0,-0.4906689564954701,0.8713460708189636,0.0,0.0,0.0,0,0,0.0
0,1.593430922667855,-0.5061620574475272,0.0,0.0,0.0,-0.4920503337442106,0.8705667516406832,0.0,0.0,0.0,0,0,0.0
0,1.596294651390688,-0.5109188578320998,0.0,0.0,0.0,-0.4934231732053154,0.8697893837843719,0.0,0.0,0.0,0,0,0.0
0,1.5990920143090552,-0.5155987758959021,0.0,0.0,0.0,-0.49465886923430163,0.8690872240965472,0.0,0.0,0.0,0,0,0.0
0,1.6020203281109509,-0.5205295434205055,0.0,0.0,0.0,-0.4959575187797075,0.8683467853144134,0.0,0.0,0.0,0,0,0.0
0,1.6048080134640674,-0.5252556447015655,0.0,0.0,0.0,-0.4971990257744141,0.867636518807832,0.0,0.0,0.0,0,0,0.0
0,1.6075911413640518,-0.5300050145641261,0.0,0.0,0.0,-0.49844352657753377,0.8669221711393424,0.0,0.0,0.0,0,0,0.0
0,1.6103788867297995,-0.5347937170661441,0.0,0.0,0.0,-0.49969519581067734,0.8662013110609617,0.0,0.0,0.0,0,0,0.0
0,1.613236666550364,-0.5397355009868912,0.0,0.0,0.0,-0.5009836238609339,0.8654567630004207,0.0,0.0,0.0,0,0,0.0
0,1.6159717718721245,-0.5444978008656909,0.0,0.0,0.0,-0.5022220818480827,0.8647386775807924,0.0,0.0,0.0,0,0,0.0
0,1.6187190590887064,-0.5493131835701802,0.0,0.0,0.0,-0.5034712495933195,0.8640119795656431,0.0,0.0,0.0,0,0,0.0
0,1.6214057239695165,-0.5540540922620564,0.0,0.0,0.0,-0.5046980536283416,0.8632959368975182,0.0,0.0,0.0,0,0,0.0
0,1.6241414821159366,-0.5589137659903488,0.0,0.0,0.0,-0.5059525197732535,0.8625613298398529,0.0,0.0,0.0,0,0,0.0
0,1.6268294860234032,-0.5637212558114999,0.0,0.0,0.0,-0.5071476638930416,0.8618591804975048,0.0,0.0,0.0,0,0,0.0
0,1.629544673742686,-0.5686091262893339,0.0,0.0,0.0,-0.5083015261462757,0.8611791674891858,0.0,0.0,0.0,0,0,0.0
0,1.6322107531424854,-0.5734390241629842,0.0,0.0,0.0,-0.5094391193987469,0.8605067016742108,0.0,0.0,0.0,0,0,0.0
0,1.6349046369286833,-0.5783499263001487,0.0,0.0,0.0,-0.5105932005469062,0.8598224139642249,0.0,0.0,0.0,0,0,0.0
0,1.6375410542335624,-0.5831868036436957,0.0,0.0,0.0,-0.51172732245561,0.8591479194250615,0.0,0.0,0.0,0,0,0.0
0,1.6403314607725423,-0.5883385032287721,0.0,0.0,0.0,-0.5129325532956416,0.8584289113081023,0.0,0.0,0.0,0,0,0.0
0,1.6428412748969985,-0.5930033860372992,0.0,0.0,0.0,-0.5137592537855985,0.8579343967633336,0.0,0.0,0.0,0,0,0.0
0,1.6454501838881639,-0.5978749233454312,0.0,0.0,0.0,-0.514561937003279,0.8574532132935496,0.0,0.0,0.0,0,0,0.0
0,1.6480690381056462,-0.6027871010063615,0.0,0.0,0.0,-0.5153700518047233,0.8569677413431598,0.0,0.0,0.0,0,0,0.0
0,1.650674900409247,-0.6076971877326394,0.0,0.0,0.0,-0.516036350081299,0.8565666847331683,0.0,0.0,0.0,0,0,0.0
0,1.6532666528178146,-0.6125990851702915,0.0,0.0,0.0,-0.5167006783071116,0.8561661106566708,0.0,0.0,0.0,0,0,0.0
0,1.6559019395416394,-0.6176020906530783,0.0,0.0,0.0,-0.5173867252133999,0.8557517026409903,0.0,0.0,0.0,0,0,0.0
0,1.6584302753264548,-0.6224207705205881,0.0,0.0,0.0,-0.5180466256750046,0.8553523797983739,0.0,0.0,0.0,0,0,0.0
0,1.661032569211662,-0.6273990557491925,0.0,0.0,0.0,-0.5187275096458026,0.8549396298784282,0.0,0.0,0.0,0,0,0.0
0,1.6638994901719981,-0.6329049208952646,0.0,0.0,0.0,-0.5193129411725901,0.8545841498241551,0.0,0.0,0.0,0,0,0.0
0,1.666169181673376,-0.6372784330912707,0.0,0.0,0.0,-0.5197774666394861,0.8543016944697218,0.0,0.0,0.0,0,0,0.0
0,1.6686806378775594,-0.6421307034453372,0.0,0.0,0.0,-0.5200874834687357,0.8541129957676312,0.0,0.0,0.0,0,0,0.0
0,1.6712393082281232,-0.6470829964259557,0.0,0.0,0.0,-0.5204037015105808,0.8539203636487926,0.0,0.0,0.0,0,0,0.0
0,1.6738022637587069,-0.6520526043542789,0.0,0.0,0.0,-0.5207208322015058,0.8537270142799578,0.0,0.0,0.0,0,0,0.0
0,1.6763191200823075,-0.6569417371703591,0.0,0.0,0.0,-0.5210310668837375,0.853537712899667,0.0,0.0,0.0,0,0,0.0
0,1.6788729225489938,-0.6619115133015877,0.0,0.0,0.0,-0.521346230340671,0.8533452455539738,0.0,0.0,0.0,0,0,0.0
0,1.6814519800004217,-0.6669395679343607,0.0,0.0,0.0,-0.5216648963945022,0.8531504766860962,0.0,0.0,0.0,0,0,0.0
0,1.683947902631246,-0.671814508718644,0.0,0.0,0.0,-0.5219807750650639,0.8529572500790853,0.0,0.0,0.0,0,0,0.0
0,1.686494764487826,-0.6767980367859722,0.0,0.0,0.0,-0.5220766010925508,0.8528986004160457,0.0,0.0,0.0,0,0,0.0
0,1.688998361632049,-0.6816996250387212,0.0,0.0,0.0,-0.5220948532534051,0.8528874276282337,0.0,0.0,0.0,0,0,0.0
0,1.6915205152762125,-0.6866380653163237,0.0,0.0,0.0,-0.5221132419972296,0.8528761706901784,0.0,0.0,0.0,0,0,0.0
0,1.6940474859916128,-0.6915864643146405,0.0,0.0,0.0,-0.5221316671740781,0.8528648909024322,0.0,0.0,0.0,0,0,0.0
0,1.6965892714641149,-0.6965644050772412,0.0,0.0,0.0,-0.5220041730620851,0.8529429308610095,0.0,0.0,0.0,0,0,0.0
0,1.6990927668499298,-0.7014637398620941,0.0,0.0,0.0,-0.5218786616363754,0.8530197316174026,0.0,0.0,0.0,0,0,0.0
0,1.7016375955131668,-0.7064403487212589,0.0,0.0,0.0,-0.5217511398482236,0.8530977365267589,0.0,0.0,0.0,0,0,0.0
0,1.7041780589694782,-0.7114047590060683,0.0,0.0,0.0,-0.5215465736432026,0.8532228146979167,0.0,0.0,0.0,0,0,0.0
0,1.7069095814940458,-0.7167362185988743,0.0,0.0,0.0,-0.5212295468669578,0.8534165216779354,0.0,0.0,0.0,0,0,0.0
0,1.709237190371809,-0.7212710023263551,0.0,0.0,0.0,-0.5209597337322353,0.8535812532088779,0.0,0.0,0.0,0,0,0.0
0,1.711788583581388,-0.7262340492193624,0.0,0.0,0.0,-0.5206642839349938,0.853761502665973,0.0,0.0,0.0,0,0,0.0
0,1.7143481414598996,-0.731204514040417,0.0,0.0,0.0,-0.5202930146455674,0.8539878095798717,0.0,0.0,0.0,0,0,0.0
0,1.7168593266394379,-0.736070641525502,0.0,0.0,0.0,-0.5198491560372487,0.8542580728136904,0.0,0.0,0.0,0,0,0.0
0,1.7194256901303104,-0.7410310349767661,0.0,0.0,0.0,-0.5193963114006265,0.854533481908944,0.0,0.0,0.0,0,0,0.0
0,1.7220283235042428,-0.7460484935459691,0.0,0.0,0.0,-0.5189378570064983,0.8548119679587454,0.0,0.0,0.0,0,0,0.0
0,1.724534397453961,-0.7508671464649003,0.0,0.0,0.0,-0.5184971817662574,0.8550793369626287,0.0,0.0,0.0,0,0,0.0
0,1.7271602869135423,-0.7559034894948577,0.0,0.0,0.0,-0.5180362036767621,0.8553586918247621,0.0,0.0,0.0,0,0,0.0
0,1.7297115865301933,-0.7607839310956801,0.0,0.0,0.0,-0.517504502053982,0.8556804837986316,0.0,0.0,0.0,0,0,0.0
0,1.73228669589603,-0.7656950407085108,0.0,0.0,0.0,-0.5169689090150484,0.856004174704651,0.0,0.0,0.0,0,0,0.0
0,1.734859564867696,-0.7705869801790824,0.0,0.0,0.0,-0.5162894200199879,0.856414172451288,0.0,0.0,0.0,0,0,0.0
0,1.7374764344317895,-0.7755434690331214,0.0,0.0,0.0,-0.5154363503680407,0.8569278666954847,0.0,0.0,0.0,0,0,0.0
0,1.7400981109887184,-0.7804852001428689,0.0,0.0,0.0,-0.5145844140987196,0.8574397242761018,0.0,0.0,0.0,0,0,0.0
0,1.7427638744332803,-0.7854859968462525,0.0,0.0,0.0,-0.5137208650615344,0.8579573840234891,0.0,0.0,0.0,0,0,0.0
0,1.7453219656058818,-0.7902616166324963,0.0,0.0,0.0,-0.5128115734301437,0.8585011882089042,0.0,0.0,0.0,0,0,0.0
0,1.74792376318635,-0.7950942001629602,0.0,0.0,0.0,-0.511889801090249,0.8590511227743,0.0,0.0,0.0,0,0,0.0
0,1.7505608613294434,-0.799967259518869,0.0,0.0,0.0,-0.5109586324756615,0.8596053023909298,0.0,0.0,0.0,0,0,0.0
0,1.7532199068251793,-0.8048555360862472,0.0,0.0,0.0,-0.5099990365985598,0.8601749721240097,0.0,0.0,0.0,0,0,0.0
0,1.755854425577286,-0.8096730771482019,0.0,0.0,0.0,-0.5087859920564093,0.8608930330111723,0.0,0.0,0.0,0,0,0.0
0,1.7585537471632926,-0.8145762301734922,0.0,0.0,0.0,-0.5075484388178774,0.8616232252287165,0.0,0.0,0.0,0,0,0.0
0,1.7612607913412364,-0.8194601365254913,0.0,0.0,0.0,-0.5063051232721747,0.8623544063483111,0.0,0.0,0.0,0,0,0.0
0,1.7642416807810988,-0.8248017004695429,0.0,0.0,0.0,-0.5049419076599897,0.8631533293040643,0.0,0.0,0.0,0,0,0.0
0,1.7667145265397606,-0.8292001603038648,0.0,0.0,0.0,-0.5036909524638334,0.8638839183629223,0.0,0.0,0.0,0,0,0.0
0,1.7695517164744343,-0.8342126282236327,0.0,0.0,0.0,-0.5021962837813286,0.8647536600421089,0.0,0.0,0.0,0,0,0.0
0,1.7721946211834043,-0.8388444095457442,0.0,0.0,0.0,-0.5006525775677514,0.8656483099820427,0.0,0.0,0.0,0,0,0.0
0,1.775125256581907,-0.843938135683008,0.0,0.0,0.0,-0.49894959147041995,0.8666310086602608,0.0,0.0,0.0,0,0,0.0
0,1.777767514297361,-0.8484891378962687,0.0,0.0,0.0,-0.49742295510668694,0.8675081577327852,0.0,0.0,0.0,0,0,0.0
0,1.7805350760760672,-0.8532175384158771,0.0,0.0,0.0,-0.495831912698432,0.8684185133619703,0.0,0.0,0.0,0,0,0.0
0,1.7834003426179568,-0.8580719572324691,0.0,0.0,0.0,-0.4941232055256435,0.8693918896338191,0.0,0.0,0.0,0,0,0.0
0,1.7863045714078478,-0.8629484701830613,0.0,0.0,0.0,-0.4924007835236312,0.8703685819153366,0.0,0.0,0.0,0,0,0.0
0,1.789171530339794,-0.8677193254918946,0.0,0.0,0.0,-0.49070980876103154,0.8713230649912304,0.0,0.0,0.0,0,0,0.0
0,1.79353375161215,-0.8749149772455319,0.0,0.0,0.0,-0.48814989678711396,0.8727598055975825,0.0,0.0,0.0,0,0,0.0
0,1.7948589135435031,-0.8770722104993431,0.0,0.0,0.0,-0.4873788645830538,0.8731906105528926,0.0,0.0,0.0,0,0,0.0
0,1.7977885377191747,-0.8818225154088785,0.0,0.0,0.0,-0.4856778350637475,0.8741378841623278,0.0,0.0,0.0,0,0,0.0
0,1.800703647877181,-0.8865083480679052,0.0,0.0,0.0,-0.4839940298593992,0.8750712994153442,0.0,0.0,0.0,0,0,0.0
0,1.8038181635792496,-0.8914719970007218,0.0,0.0,0.0,-0.482204134614076,0.8760588864688778,0.0,0.0,0.0,0,0,0.0
0,1.8067443774236696,-0.8960934689232686,0.0,0.0,0.0,-0.4804016760421683,0.8770485902479267,0.0,0.0,0.0,0,0,0.0
0,1.809638224199558,-0.9006225040564089,0.0,0.0,0.0,-0.4786286642144073,0.8780174268158533,0.0,0.0,0.0,0,0,0.0
0,1.8127575066028156,-0.9054611530875829,0.0,0.0,0.0,-0.47672735967783625,0.8790512070036642,0.0,0.0,0.0,0,0,0.0
0,1.816821515561969,-0.911705749344442,0.0,0.0,0.0,-0.47388244176128913,0.8805881167664928,0.0,0.0,0.0,0,0,0.0
0,1.819062029806999,-0.91510021439375,0.0,0.0,0.0,-0.4723273274962683,0.8814232216706301,0.0,0.0,0.0,0,0,0.0
0,1.8219739775302723,-0.9194782305964718,0.0,0.0,0.0,-0.47031473915680666,0.8824987513486151,0.0,0.0,0.0,0,0,0.0
0,1.8250521511227968,-0.9240606699372321,0.0,0.0,0.0,-0.4681991054771948,0.8836229951910229,0.0,0.0,0.0,0,0,0.0
0,1.8299727909721533,-0.9313106723952209,0.0,0.0,0.0,-0.4648355435340967,0.8853970394503027,0.0,0.0,0.0,0,0,0.0
0,1.8316679914164489,-0.9337679281161153,0.0,0.0,0.0,-0.46368803964360045,0.8859985337975875,0.0,0.0,0.0,0,0,0.0
0,1.8344588685973486,-0.9377910650653439,0.0,0.0,0.0,-0.46160384782350167,0.887086178268232,0.0,0.0,0.0,0,0,0.0
0,1.837447440638933,-0.9420562246245382,0.0,0.0,0.0,-0.45938422111086347,0.888237658171711,0.0,0.0,0.0,0,0,0.0
0,1.8406547276920806,-0.9465851601096197,0.0,0.0,0.0,-0.4569819529822166,0.8894759663130641,0.0,0.0,0.0,0,0,0.0
0,1.8439157199952414,-0.9511375573503942,0.0,0.0,0.0,-0.454474736866442,0.8907596272565221,0.0,0.0,0.0,0,0,0.0
0,1.8472085251673673,-0.9556800912520301,0.0,0.0,0.0,-0.4519591604534623,0.8920386299270909,0.0,0.0,0.0,0,0,0.0
0,1.8504753669456482,-0.9601336920772092,0.0,0.0,0.0,-0.44941300067528855,0.8933241040205022,0.0,0.0,0.0,0,0,0.0
0,1.8539438574204834,-0.9648060724152487,0.0,0.0,0.0,-0.44672653988040406,0.8946705530900644,0.0,0.0,0.0,0,0,0.0
0,1.8570814232716915,-0.9689800166809839,0.0,0.0,0.0,-0.4443124296652503,0.8958719020289463,0.0,0.0,0.0,0,0,0.0
0,1.8604785209599768,-0.9734488372447891,0.0,0.0,0.0,-0.44171014036734535,0.8971578188349362,0.0,0.0,0.0,0,0,0.0
0,1.8638661275370154,-0.9778518803561651,0.0,0.0,0.0,-0.4391310816916792,0.8984230034300634,0.0,0.0,0.0,0,0,0.0
0,1.8673035489912837,-0.9822669510373873,0.0,0.0,0.0,-0.4364749231386115,0.8997164228083998,0.0,0.0,0.0,0,0,0.0
0,1.8708094256658745,-0.9867154701631868,0.0,0.0,0.0,-0.43378234615737693,0.9010176891505525,0.0,0.0,0.0,0,0,0.0
0,1.8741861311964767,-0.9909477705042498,0.0,0.0,0.0,-0.43120483555819966,0.9022540605567957,0.0,0.0,0.0,0,0,0.0
0,1.8777224257221745,-0.9953284851566587,0.0,0.0,0.0,-0.42849120040429217,0.9035459541031041,0.0,0.0,0.0,0,0,0.0
0,1.8811788352341432,-0.9995579686405547,0.0,0.0,0.0,-0.4258049750059376,0.9048149663108987,0.0,0.0,0.0,0,0,0.0
0,1.8846861480301853,-1.00379807160008,0.0,0.0,0.0,-0.42309501678594613,0.9060853198076326,0.0,0.0,0.0,0,0,0.0
0,1.8883191605842966,-1.0081369909652056,0.0,0.0,0.0,-0.4203041005493129,0.9073833054786897,0.0,0.0,0.0,0,0,0.0
0,1.8918536694620338,-1.01230585815749,0.0,0.0,0.0,-0.4175791289580242,0.9086405620808802,0.0,0.0,0.0,0,0,0.0
0,1.895478220886098,-1.016529274214363,0.0,0.0,0.0,-0.41480086230712815,0.9099122180898896,0.0,0.0,0.0,0,0,0.0
0,1.8997867181195593,-1.0214880017879828,0.0,0.0,0.0,-0.41151665000468596,0.9114022420253972,0.0,0.0,0.0,0,0,0.0
0,1.9027925297424702,-1.0248974603878485,0.0,0.0,0.0,-0.4091733836721327,0.9124566521727472,0.0,0.0,0.0,0,0,0.0
0,1.9066234180912998,-1.0291980372587575,0.0,0.0,0.0,-0.4062002956705351,0.913784066285449,0.0,0.0,0.0,0,0,0.0
0,1.9104027588632775,-1.0333855230928226,0.0,0.0,0.0,-0.4032856443905762,0.9150741440060897,0.0,0.0,0.0,0,0,0.0
0,1.9140279213877676,-1.0373510605267175,0.0,0.0,0.0,-0.40050563842120257,0.9162942942051014,0.0,0.0,0.0,0,0,0.0
0,1.917780461918195,-1.0414062151860322,0.0,0.0,0.0,-0.39764303650083754,0.917540198314163,0.0,0.0,0.0,0,0,0.0
0,1.921560106006886,-1.0454398416066004,0.0,0.0,0.0,-0.3947474604941945,0.918789661692699,0.0,0.0,0.0,0,0,0.0
0,1.925407512479464,-1.049494225784123,0.0,0.0,0.0,-0.3918156295029187,0.9200437557405797,0.0,0.0,0.0,0,0,0.0
0,1.929239485797832,-1.0534811125533452,0.0,0.0,0.0,-0.38888502380833573,0.9212862954899471,0.0,0.0,0.0,0,0,0.0
0,1.9331559400371263,-1.0575043133565931,0.0,0.0,0.0,-0.38590542637886416,0.9225383471115697,0.0,0.0,0.0,0,0,0.0
0,1.9370178233665538,-1.0614204882717764,0.0,0.0,0.0,-0.38292619567697206,0.9237789392838317,0.0,0.0,0.0,0,0,0.0
0,1.9409366366620444,-1.0653434228675664,0.0,0.0,0.0,-0.3799186056566967,0.9250199203670543,0.0,0.0,0.0,0,0,0.0
0,1.9448921999894322,-1.0692519461468597,0.0,0.0,0.0,-0.3768983554438507,0.9262546246382367,0.0,0.0,0.0,0,0,0.0
0,1.9488843742324247,-1.0731454860438652,0.0,0.0,0.0,-0.37386791018548254,0.9274819597887282,0.0,0.0,0.0,0,0,0.0
0,1.9529381852423473,-1.0770477440367265,0.0,0.0,0.0,-0.3707198825733508,0.9287447273954242,0.0,0.0,0.0,0,0,0.0
0,1.9569613704219642,-1.0808682797782294,0.0,0.0,0.0,-0.36761165969458565,0.9299793909848713,0.0,0.0,0.0,0,0,0.0
0,1.9609601465620328,-1.0846150879201788,0.0,0.0,0.0,-0.36453768974285233,0.9311886343576923,0.0,0.0,0.0,0,0,0.0
0,1.9650102842173005,-1.0883600806953477,0.0,0.0,0.0,-0.36143930671769486,0.9323956389641856,0.0,0.0,0.0,0,0,0.0
0,1.9691813727910787,-1.092165769311351,0.0,0.0,0.0,-0.35825798167496314,0.9336226317769839,0.0,0.0,0.0,0,0,0.0
0,1.973313682001554,-1.0958847549034514,0.0,0.0,0.0,-0.3551215809235722,0.9348201232121305,0.0,0.0,0.0,0,0,0.0
0,1.9774067361489358,-1.099518967350728,0.0,0.0,0.0,-0.3520126812892366,0.935995230870095,0.0,0.0,0.0,0,0,0.0
0,1.9816325023223658,-1.1032210746548523,0.0,0.0,0.0,-0.3488176984896127,0.9371905959944379,0.0,0.0,0.0,0,0,0.0
0,1.9858617797931897,-1.1068755596229845,0.0,0.0,0.0,-0.3456349580266339,0.9383690509548612,0.0,0.0,0.0,0,0,0.0
0,1.9899917216827405,-1.1103955298161596,0.0,0.0,0.0,-0.34252988202294193,0.9395069344721994,0.0,0.0,0.0,0,0,0.0
0,1.9943521129258426,-1.1140624020247671,0.0,0.0,0.0,-0.33926581923264604,0.9406905463011742,0.0,0.0,0.0,0,0,0.0
0,1.9986061762340235,-1.1175897181726855,0.0,0.0,0.0,-0.33603774704760403,0.9418485189026792,0.0,0.0,0.0,0,0,0.0
0,2.002912172868469,-1.1211105364608027,0.0,0.0,0.0,-0.3327846775519303,0.9430028411339267,0.0,0.0,0.0,0,0,0.0
0,2.0071893192355263,-1.1245587722210797,0.0,0.0,0.0,-0.3295675721150086,0.9441319904601362,0.0,0.0,0.0,0,0,0.0
0,2.011615386233014,-1.1280775411894277,0.0,0.0,0.0,-0.3262525792344993,0.9452826320962618,0.0,0.0,0.0,0,0,0.0
0,2.015923987859533,-1.1314538475279288,0.0,0.0,0.0,-0.32305594894475215,0.9463798676279022,0.0,0.0,0.0,0,0,0.0
0,2.0203828109542723,-1.134899479855918,0.0,0.0,0.0,-0.3197613674070066,0.9474981097152655,0.0,0.0,0.0,0,0,0.0
0,2.024910020091357,-1.138347912921892,0.0,0.0,0.0,-0.31642938234589413,0.948616068801386,0.0,0.0,0.0,0,0,0.0
0,2.0292308527506635,-1.1415914080370106,0.0,0.0,0.0,-0.3132625293625652,0.9496665665892255,0.0,0.0,0.0,0,0,0.0
0,2.0336769767662046,-1.1448827974814328,0.0,0.0,0.0,-0.3100164041694559,0.9507312076217129,0.0,0.0,0.0,0,0,0.0
0,2.0382514631013806,-1.148221070422899,0.0,0.0,0.0,-0.30662736203098573,0.9518296385666496,0.0,0.0,0.0,0,0,0.0
0,2.042692168926998,-1.1514134745129292,0.0,0.0,0.0,-0.3033506728879859,0.9528789898294568,0.0,0.0,0.0,0,0,0.0
0,2.0471450641952833,-1.154568392374444,0.0,0.0,0.0,-0.3000820887659167,0.9539133818129844,0.0,0.0,0.0,0,0,0.0
0,2.0517053351666847,-1.15775264847779,0.0,0.0,0.0,-0.2967471632406684,0.9549560833402844,0.0,0.0,0.0,0,0,0.0
0,2.056322613153218,-1.1609289436273147,0.0,0.0,0.0,-0.2933728171093298,0.9559981120176628,0.0,0.0,0.0,0,0,0.0
0,2.060904532114353,-1.1640334667455872,0.0,0.0,0.0,-0.2900368288441329,0.9570154846782988,0.0,0.0,0.0,0,0,0.0
0,2.065529092164363,-1.167120035269919,0.0,0.0,0.0,-0.28667095025128575,0.958029105133046,0.0,0.0,0.0,0,0,0.0
0,2.070168319735836,-1.1701694681890902,0.0,0.0,0.0,-0.28330654882889705,0.9590294048623639,0.0,0.0,0.0,0,0,0.0
0,2.0749083977790646,-1.1732377578861903,0.0,0.0,0.0,-0.27988113490753797,0.9600346610007727,0.0,0.0,0.0,0,0,0.0
0,2.0795270019241676,-1.1761808383059489,0.0,0.0,0.0,-0.2765541945522659,0.9609983233468972,0.0,0.0,0.0,0,0,0.0
0,2.0843390542362807,-1.1792005228416553,0.0,0.0,0.0,-0.2730995527442936,0.9619857765533057,0.0,0.0,0.0,0,0,0.0
0,2.088942329045949,-1.182043295140799,0.0,0.0,0.0,-0.26980876899983613,0.9629139256292812,0.0,0.0,0.0,0,0,0.0
0,2.0938658555034135,-1.1850375259740467,0.0,0.0,0.0,-0.2663002958422821,0.9638901142943178,0.0,0.0,0.0,0,0,0.0
0,2.0986480022161045,-1.1878982739283193,0.0,0.0,0.0,-0.2629041475273938,0.9648219572609728,0.0,0.0,0.0,0,0,0.0
0,2.103240838188811,-1.1906020317884762,0.0,0.0,0.0,-0.2597165941581922,0.9656848816870175,0.0,0.0,0.0,0,0,0.0
0,2.108076191310939,-1.1934057200995745,0.0,0.0,0.0,-0.25637060971546205,0.9665785588735777,0.0,0.0,0.0,0,0,0.0
0,2.112988024725374,-1.19620847475913,0.0,0.0,0.0,-0.2529820880172841,0.967470962428545,0.0,0.0,0.0,0,0,0.0
0,2.1178202221906584,-1.1989210752300048,0.0,0.0,0.0,-0.24965868759560197,0.9683338988737519,0.0,0.0,0.0,0,0,0.0
0,2.1225649036181906,-1.2015418612422917,0.0,0.0,0.0,-0.24640508433322947,0.9691669280442529,0.0,0.0,0.0,0,0,0.0
0,2.1275101912099363,-1.2042302612622204,0.0,0.0,0.0,-0.24302343636999899,0.9700204169886926,0.0,0.0,0.0,0,0,0.0
0,2.132462838887382,-1.206878074530136,0.0,0.0,0.0,-0.23964652135634673,0.970860208681869,0.0,0.0,0.0,0,0,0.0
0,2.1373113359404434,-1.2094269783139755,0.0,0.0,0.0,-0.23634999990517366,0.9716679873006131,0.0,0.0,0.0,0,0,0.0
0,2.1423997472521386,-1.2120580768649556,0.0,0.0,0.0,-0.23289967036584627,0.9725007678883756,0.0,0.0,0.0,0,0,0.0
0,2.14718120527836,-1.2144875957438355,0.0,0.0,0.0,-0.22966659424109942,0.9732693643024495,0.0,0.0,0.0,0,0,0.0
0,2.1521076723164247,-1.2169497369382383,0.0,0.0,0.0,-0.22634396678100496,0.9740474365768022,0.0,0.0,0.0,0,0,0.0
0,2.1571804706171447,-1.2194418879127404,0.0,0.0,0.0,-0.22293145818182497,0.9748341217627362,0.0,0.0,0.0,0,0,0.0
0,2.1622235398632115,-1.2218757364854607,0.0,0.0,0.0,-0.21954780274282742,0.975601743700162,0.0,0.0,0.0,0,0,0.0
0,2.1671951682609487,-1.224232713167694,0.0,0.0,0.0,-0.21622056025238623,0.976344544371578,0.0,0.0,0.0,0,0,0.0
0,2.172149071942203,-1.2265400506053799,0.0,0.0,0.0,-0.2129132979311665,0.9770710964735752,0.0,0.0,0.0,0,0,0.0
0,2.177298253247583,-1.2288960372113924,0.0,0.0,0.0,-0.20938124588750226,0.9778340829970069,0.0,0.0,0.0,0,0,0.0
0,2.1822935180103222,-1.231138084375926,0.0,0.0,0.0,-0.20596337564933506,0.9785597007291538,0.0,0.0,0.0,0,0,0.0
0,2.187386755920451,-1.2333814761463082,0.0,0.0,0.0,-0.2025286218252267,0.9792763437056847,0.0,0.0,0.0,0,0,0.0
0,2.1924237522164622,-1.2355580203885042,0.0,0.0,0.0,-0.19913973857675485,0.9799711039207134,0.0,0.0,0.0,0,0,0.0
0,2.197591904500199,-1.2377489307896345,0.0,0.0,0.0,-0.19575302399547576,0.9806532280050001,0.0,0.0,0.0,0,0,0.0
0,2.202728901673446,-1.2398848828374942,0.0,0.0,0.0,-0.19239417161025724,0.9813177277163614,0.0,0.0,0.0,0,0,0.0
0,2.2079066519755877,-1.24199631057756,0.0,0.0,0.0,-0.18906171388131374,0.9819652072982322,0.0,0.0,0.0,0,0,0.0
0,2.21309701966661,-1.2440718959465005,0.0,0.0,0.0,-0.18572810450963964,0.9826011760603873,0.0,0.0,0.0,0,0,0.0
0,2.218181615107242,-1.2460652612433871,0.0,0.0,0.0,-0.1824691281665005,0.9832115831631344,0.0,0.0,0.0,0,0,0.0
0,2.2234621110263495,-1.2480951331121664,0.0,0.0,0.0,-0.1790984364328236,0.9838311593293424,0.0,0.0,0.0,0,0,0.0
0,2.2286214685013395,-1.2500379546009288,0.0,0.0,0.0,-0.17581162440613246,0.9844238277915042,0.0,0.0,0.0,0,0,0.0
0,2.23374385727005,-1.2519278850106899,0.0,0.0,0.0,-0.17255454566659156,0.9849999638425354,0.0,0.0,0.0,0,0,0.0
0,2.238945964795669,-1.2538082246195226,0.0,0.0,0.0,-0.16925283433480529,0.9855726650377612,0.0,0.0,0.0,0,0,0.0
0,2.244341925391886,-1.2557178432960159,0.0,0.0,0.0,-0.16585809039711674,0.986149630558072,0.0,0.0,0.0,0,0,0.0
0,2.249565911777262,-1.257526215765966,0.0,0.0,0.0,-0.16257758577889492,0.986695762939269,0.0,0.0,0.0,0,0,0.0
0,2.254701761944056,-1.2592659120879008,0.0,0.0,0.0,-0.15940230765192423,0.9872137075199277,0.0,0.0,0.0,0,0,0.0
0,2.2601118393832165,-1.2610597774837786,0.0,0.0,0.0,-0.15606291394218644,0.9877471168734808,0.0,0.0,0.0,0,0,0.0
0,2.2653512847686454,-1.2627578195397264,0.0,0.0,0.0,-0.15295223921607382,0.98823358196268,0.0,0.0,0.0,0,0,0.0
0,2.270569628124835,-1.2644127850460956,0.0,0.0,0.0,-0.14980008794373512,0.9887163059503212,0.0,0.0,0.0,0,0,0.0
0,2.2758599675220252,-1.266053523725631,0.0,0.0,0.0,-0.14660928304512222,0.9891944794250498,0.0,0.0,0.0,0,0,0.0
0,2.281361509791505,-1.2677209263320526,0.0,0.0,0.0,-0.14329603866261942,0.9896798701113412,0.0,0.0,0.0,0,0,0.0
0,2.286601902039006,-1.2692709369710968,0.0,0.0,0.0,-0.14016875552150487,0.9901276281245527,0.0,0.0,0.0,0,0,0.0
0,2.291848547382922,-1.270786813576946,0.0,0.0,0.0,-0.13704212136014451,0.9905652209587774,0.0,0.0,0.0,0,0,0.0
0,2.2972507512946367,-1.2723107433107814,0.0,0.0,0.0,-0.13387739443160113,0.9909979027526776,0.0,0.0,0.0,0,0,0.0
0,2.302642466472603,-1.2737945955569014,0.0,0.0,0.0,-0.130723071303208,0.9914189218635362,0.0,0.0,0.0,0,0,0.0
0,2.3080794642299516,-1.2752537493609555,0.0,0.0,0.0,-0.12755859152126733,0.9918310368853711,0.0,0.0,0.0,0,0,0.0
0,2.31331288037029,-1.276622520151735,0.0,0.0,0.0,-0.12451652408657161,0.9922175342279526,0.0,0.0,0.0,0,0,0.0
0,2.3187276693865035,-1.278003303549804,0.0,0.0,0.0,-0.12139857292575591,0.9926038416667498,0.0,0.0,0.0,0,0,0.0
0,2.3241327735292274,-1.2793455027312957,0.0,0.0,0.0,-0.11828992401019975,0.9929791004233982,0.0,0.0,0.0,0,0,0.0
0,2.329629348284041,-1.2806739277116561,0.0,0.0,0.0,-0.11513232751125305,0.9933501634176347,0.0,0.0,0.0,0,0,0.0
0,2.334939103214001,-1.2819215210118642,0.0,0.0,0.0,-0.1121327528859905,0.9936932352241357,0.0,0.0,0.0,0,0,0.0
0,2.3403087834443044,-1.283149029011546,0.0,0.0,0.0,-0.10911090787498914,0.994029581945475,0.0,0.0,0.0,0,0,0.0
0,2.3457549402078177,-1.2843592186407629,0.0,0.0,0.0,-0.10604919487257554,0.9943608843206165,0.0,0.0,0.0,0,0,0.0
0,2.3512410104745998,-1.2855428673595672,0.0,0.0,0.0,-0.10296818555212708,0.9946846499087552,0.0,0.0,0.0,0,0,0.0
0,2.3566994344242786,-1.2866852035773007,0.0,0.0,0.0,-0.09991545310067405,0.994995930761371,0.0,0.0,0.0,0,0,0.0
0,2.3621910527526144,-1.287799352519095,0.0,0.0,0.0,-0.09684709038754725,0.9952992721204342,0.0,0.0,0.0,0,0,0.0
0,2.36756401604929,-1.288854974250766,0.0,0.0,0.0,-0.09384782902924835,0.9955865532370839,0.0,0.0,0.0,0,0,0.0
0,2.373128471004304,-1.2899134333525788,0.0,0.0,0.0,-0.09089282586717265,0.9958606801183988,0.0,0.0,0.0,0,0,0.0
0,2.378514913842063,-1.2909049409345847,0.0,0.0,0.0,-0.08803477008661464,0.9961174023456256,0.0,0.0,0.0,0,0,0.0
0,2.383988002976026,-1.29187995675942,0.0,0.0,0.0,-0.08513301533417211,0.9963695949295681,0.0,0.0,0.0,0,0,0.0
0,2.3894628935498354,-1.2928224217010722,0.0,0.0,0.0,-0.08226398282136865,0.9966105744624455,0.0,0.0,0.0,0,0,0.0
0,2.3948202979905084,-1.293712929752143,0.0,0.0,0.0,-0.07945859144558286,0.9968381675304593,0.0,0.0,0.0,0,0,0.0
0,2.40043680562177,-1.2946140458946227,0.0,0.0,0.0,-0.07651954960411195,0.9970680811902384,0.0,0.0,0.0,0,0,0.0
0,2.405910214775382,-1.2954591319581121,0.0,0.0,0.0,-0.07365740722492273,0.9972836037762287,0.0,0.0,0.0,0,0,0.0
0,2.411359037004786,-1.2962684252655454,0.0,0.0,0.0,-0.07085374571746816,0.9974867150583031,0.0,0.0,0.0,0,0,0.0
0,2.416864117279878,-1.2970544680072642,0.0,0.0,0.0,-0.06802288774297915,0.9976837608897451,0.0,0.0,0.0,0,0,0.0
